[
    {
        "name": "מ. א. אבו בסמה",
        "latitude": "31.2582386",
        "longtitude": "34.9671983",
        "radius": 3,
        "fillkey": "gt50",
        "sum1": 476143956,
        "sum2": 53560012,
        "sum3": 114384200,
        "sum4": 0
    },
    {
        "name": "מ. א. אל-בטוף",
        "latitude": "32.8117928",
        "longtitude": "35.2618287",
        "radius": 3,
        "fillkey": "gt50",
        "sum1": 83276084,
        "sum2": 16285251,
        "sum3": 71590729,
        "sum4": 674693
    },
    {
        "name": "מ. א. אלונה",
        "latitude": "32.5569681",
        "longtitude": "35.0222946",
        "radius": 3,
        "fillkey": "gt50",
        "sum1": 11966124,
        "sum2": 3427451,
        "sum3": 42101767,
        "sum4": 0
    },
    {
        "name": "מ. א. אפעל",
        "latitude": "32.095909",
        "longtitude": "34.84756",
        "radius": 3,
        "fillkey": "gt50",
        "sum1": 2174235,
        "sum2": 0,
        "sum3": 21347,
        "sum4": 0
    },
    {
        "name": "מ. א. אשכול",
        "latitude": "31.799875",
        "longtitude": "34.7388986",
        "radius": 3,
        "fillkey": "gt50",
        "sum1": 186488095,
        "sum2": 3851921,
        "sum3": 211970791,
        "sum4": 0
    },
    {
        "name": "מ. א. באר-טוביה",
        "latitude": "31.737127",
        "longtitude": "34.72557",
        "radius": 3,
        "fillkey": "gt50",
        "sum1": 102522948,
        "sum2": 2306621,
        "sum3": 1717588,
        "sum4": 957117
    },
    {
        "name": "מ. א. בוסתאן אל-מרג",
        "latitude": "32.6311651",
        "longtitude": "35.3548545",
        "radius": 3,
        "fillkey": "gt50",
        "sum1": 45561264,
        "sum2": 7484945,
        "sum3": 66750610,
        "sum4": 0
    },
    {
        "name": "מ. א. בני שמעון",
        "latitude": "31.82165779999999",
        "longtitude": "34.7827817",
        "radius": 3,
        "fillkey": "gt50",
        "sum1": 60458043,
        "sum2": 11467171,
        "sum3": 34704229,
        "sum4": 271803
    },
    {
        "name": "מ. א. ברנר",
        "latitude": "31.8602669",
        "longtitude": "34.7851264",
        "radius": 3,
        "fillkey": "gt50",
        "sum1": 43853490,
        "sum2": 2443517,
        "sum3": 1778863,
        "sum4": 0
    },
    {
        "name": "מ. א. גדרות",
        "latitude": "31.830759",
        "longtitude": "34.7354031",
        "radius": 3,
        "fillkey": "gt50",
        "sum1": 27965785,
        "sum2": 3835725,
        "sum3": 21183291,
        "sum4": 0
    },
    {
        "name": "מ. א. גולן",
        "latitude": "33.01558540000001",
        "longtitude": "35.784354",
        "radius": 3,
        "fillkey": "gt50",
        "sum1": 129281859,
        "sum2": 40739191,
        "sum3": 226762563,
        "sum4": 398464
    },
    {
        "name": "מ. א. גוש עציון",
        "latitude": "31.2557362",
        "longtitude": "34.8071636",
        "radius": 3,
        "fillkey": "gt50",
        "sum1": 237704108,
        "sum2": 2838122,
        "sum3": 179024714,
        "sum4": 276652
    },
    {
        "name": "מ. א. גזר",
        "latitude": "31.876349",
        "longtitude": "34.92111",
        "radius": 3,
        "fillkey": "gt50",
        "sum1": 114420992,
        "sum2": 7351779,
        "sum3": 26792947,
        "sum4": 0
    },
    {
        "name": "מ. א. גן רוה",
        "latitude": "31.9172636",
        "longtitude": "34.7464552",
        "radius": 3,
        "fillkey": "gt50",
        "sum1": 27974917,
        "sum2": 960682,
        "sum3": 1875061,
        "sum4": 0
    },
    {
        "name": "מ. א. דרום השרון",
        "latitude": "32.1412443",
        "longtitude": "34.9230955",
        "radius": 3,
        "fillkey": "gt50",
        "sum1": 157577637,
        "sum2": 4841539,
        "sum3": 8806238,
        "sum4": 1583795
    },
    {
        "name": "מ. א. הגלבוע",
        "latitude": "32.433889",
        "longtitude": "35.414444",
        "radius": 3,
        "fillkey": "gt50",
        "sum1": 189083348,
        "sum2": 28675929,
        "sum3": 185286490,
        "sum4": 1371990
    },
    {
        "name": "מ. א. הגליל העליון",
        "latitude": "32.969051",
        "longtitude": "35.5493055",
        "radius": 3,
        "fillkey": "gt50",
        "sum1": 112081844,
        "sum2": 16498153,
        "sum3": 149387451,
        "sum4": 56291
    },
    {
        "name": "מ. א. הגליל התחתון",
        "latitude": "32.7856673",
        "longtitude": "35.5403603",
        "radius": 3,
        "fillkey": "gt50",
        "sum1": 78118811,
        "sum2": 25093056,
        "sum3": 66249158,
        "sum4": 0
    },
    {
        "name": "מ. א. הערבה התיכונה",
        "latitude": "29.567726",
        "longtitude": "34.957242",
        "radius": 3,
        "fillkey": "gt50",
        "sum1": 28492573,
        "sum2": 6281193,
        "sum3": 27124827,
        "sum4": 21304
    },
    {
        "name": "מ. א. הר חברון",
        "latitude": "31.532569",
        "longtitude": "35.09982600000001",
        "radius": 3,
        "fillkey": "gt50",
        "sum1": 138946667,
        "sum2": 4695545,
        "sum3": 200518420,
        "sum4": 231767
    },
    {
        "name": "מ. א. זבולון",
        "latitude": "32.803614",
        "longtitude": "35.090477",
        "radius": 3,
        "fillkey": "gt50",
        "sum1": 66818099,
        "sum2": 17542735,
        "sum3": 55154554,
        "sum4": 43611
    },
    {
        "name": "מ. א. חבל אילות",
        "latitude": "30.130877",
        "longtitude": "34.9506625",
        "radius": 3,
        "fillkey": "gt50",
        "sum1": 37612229,
        "sum2": 18950366,
        "sum3": 8139750,
        "sum4": 1500
    },
    {
        "name": "מ. א. חבל יבנה",
        "latitude": "31.9208893",
        "longtitude": "34.8697007",
        "radius": 3,
        "fillkey": "gt50",
        "sum1": 34880913,
        "sum2": 2193088,
        "sum3": 34195703,
        "sum4": 0
    },
    {
        "name": "מ. א. חוף אשקלון",
        "latitude": "31.734099",
        "longtitude": "34.6343978",
        "radius": 3,
        "fillkey": "gt50",
        "sum1": 170893024,
        "sum2": 11999966,
        "sum3": 133555730,
        "sum4": 1060732
    },
    {
        "name": "מ. א. חוף הכרמל",
        "latitude": "32.793539",
        "longtitude": "34.957531",
        "radius": 3,
        "fillkey": "gt50",
        "sum1": 123949407,
        "sum2": 10076535,
        "sum3": 52390731,
        "sum4": 615199
    },
    {
        "name": "מ. א. חוף השרון",
        "latitude": "32.354651",
        "longtitude": "34.856198",
        "radius": 3,
        "fillkey": "gt50",
        "sum1": 51924685,
        "sum2": 6367523,
        "sum3": 1972701,
        "sum4": 128353
    },
    {
        "name": "מ. א. יואב",
        "latitude": "32.1247419",
        "longtitude": "34.83609130000001",
        "radius": 3,
        "fillkey": "gt50",
        "sum1": 60161184,
        "sum2": 4409467,
        "sum3": 12526273,
        "sum4": 263051
    },
    {
        "name": "מ. א. לב השרון",
        "latitude": "32.2736042",
        "longtitude": "34.9451498",
        "radius": 3,
        "fillkey": "gt50",
        "sum1": 117056599,
        "sum2": 6265091,
        "sum3": 6534646,
        "sum4": 309239
    },
    {
        "name": "מ. א. לכיש",
        "latitude": "31.560907",
        "longtitude": "34.84409",
        "radius": 3,
        "fillkey": "gt50",
        "sum1": 72258506,
        "sum2": 7193499,
        "sum3": 102859615,
        "sum4": 0
    },
    {
        "name": "מ. א. מבואות החרמון",
        "latitude": "32.962385",
        "longtitude": "35.512829",
        "radius": 3,
        "fillkey": "gt50",
        "sum1": 51827630,
        "sum2": 27903227,
        "sum3": 101218549,
        "sum4": 783064
    },
    {
        "name": "מ. א. מגידו",
        "latitude": "32.577899",
        "longtitude": "35.179972",
        "radius": 3,
        "fillkey": "gt50",
        "sum1": 59129781,
        "sum2": 2914949,
        "sum3": 10472109,
        "sum4": 142031
    },
    {
        "name": "מ. א. מגילות ים המלח",
        "latitude": "31.6270729",
        "longtitude": "35.3685679",
        "radius": 3,
        "fillkey": "gt50",
        "sum1": 36801479,
        "sum2": 2481874,
        "sum3": 37146916,
        "sum4": 3570
    },
    {
        "name": "מ. א. מטה אשר",
        "latitude": "32.8501321",
        "longtitude": "35.0674315",
        "radius": 3,
        "fillkey": "gt50",
        "sum1": 222557709,
        "sum2": 13002855,
        "sum3": 202240045,
        "sum4": 309287
    },
    {
        "name": "מ. א. מטה בנימין",
        "latitude": "31.8873084",
        "longtitude": "35.0052627",
        "radius": 3,
        "fillkey": "gt50",
        "sum1": 601638111,
        "sum2": 6128670,
        "sum3": 488012514,
        "sum4": 0
    },
    {
        "name": "מ. א. מטה יהודה",
        "latitude": "31.8905526",
        "longtitude": "35.0045927",
        "radius": 3,
        "fillkey": "gt50",
        "sum1": 330990117,
        "sum2": 14105217,
        "sum3": 233958228,
        "sum4": 144035
    },
    {
        "name": "מ. א. מנשה",
        "latitude": "31.8129454",
        "longtitude": "34.7869906",
        "radius": 3,
        "fillkey": "gt50",
        "sum1": 91184426,
        "sum2": 10478689,
        "sum3": 82154539,
        "sum4": 0
    },
    {
        "name": "מ. א. מעלה יוסף",
        "latitude": "31.8880694",
        "longtitude": "35.0054199",
        "radius": 3,
        "fillkey": "gt50",
        "sum1": 83265406,
        "sum2": 12918487,
        "sum3": 138963390,
        "sum4": 904010
    },
    {
        "name": "מ. א. מרום הגליל",
        "latitude": "32.969051",
        "longtitude": "35.5493055",
        "radius": 3,
        "fillkey": "gt50",
        "sum1": 111948910,
        "sum2": 22928042,
        "sum3": 192601888,
        "sum4": 100657
    },
    {
        "name": "מ. א. מרחבים",
        "latitude": "31.07478559999999",
        "longtitude": "35.0376681",
        "radius": 3,
        "fillkey": "gt50",
        "sum1": 92590679,
        "sum2": 10063580,
        "sum3": 82866251,
        "sum4": 0
    },
    {
        "name": "מ. א. משגב",
        "latitude": "32.9188257",
        "longtitude": "35.2949023",
        "radius": 3,
        "fillkey": "gt50",
        "sum1": 146444933,
        "sum2": 25294786,
        "sum3": 145201634,
        "sum4": 658945
    },
    {
        "name": "מ. א. נחל שורק",
        "latitude": "31.7156744",
        "longtitude": "34.9921788",
        "radius": 3,
        "fillkey": "gt50",
        "sum1": 119192965,
        "sum2": 13862448,
        "sum3": 105911233,
        "sum4": 0
    },
    {
        "name": "מ. א. עמק הירדן",
        "latitude": "32.6621844",
        "longtitude": "35.5577127",
        "radius": 3,
        "fillkey": "gt50",
        "sum1": 71546057,
        "sum2": 25440662,
        "sum3": 50209333,
        "sum4": 16350
    },
    {
        "name": "מ. א. עמק המעיינות",
        "latitude": "32.4978371",
        "longtitude": "35.5000999",
        "radius": 3,
        "fillkey": "gt50",
        "sum1": 91324340,
        "sum2": 26579527,
        "sum3": 97127058,
        "sum4": 282289
    },
    {
        "name": "מ. א. עמק חפר",
        "latitude": "32.3335932",
        "longtitude": "35.0123348",
        "radius": 3,
        "fillkey": "gt50",
        "sum1": 184808816,
        "sum2": 9758915,
        "sum3": 69964949,
        "sum4": 0
    },
    {
        "name": "מ. א. עמק יזרעאל",
        "latitude": "32.562589",
        "longtitude": "35.319425",
        "radius": 3,
        "fillkey": "gt50",
        "sum1": 199107744,
        "sum2": 10861769,
        "sum3": 58163605,
        "sum4": 2191702
    },
    {
        "name": "מ. א. עמק לוד",
        "latitude": "31.945267",
        "longtitude": "34.875158",
        "radius": 3,
        "fillkey": "gt50",
        "sum1": 80134932,
        "sum2": 15274084,
        "sum3": 27747285,
        "sum4": 0
    },
    {
        "name": "מ. א. ערבות הירדן",
        "latitude": "32.1159945",
        "longtitude": "35.4562795",
        "radius": 3,
        "fillkey": "gt50",
        "sum1": 82985747,
        "sum2": 2540949,
        "sum3": 133683948,
        "sum4": 0
    },
    {
        "name": "מ. א. רמת נגב",
        "latitude": "32.061295",
        "longtitude": "34.876729",
        "radius": 3,
        "fillkey": "gt50",
        "sum1": 57247888,
        "sum2": 18761687,
        "sum3": 10017944,
        "sum4": 326848
    },
    {
        "name": "מ. א. שדות נגב",
        "latitude": "31.4144482",
        "longtitude": "34.5417619",
        "radius": 3,
        "fillkey": "gt50",
        "sum1": 124848571,
        "sum2": 8538065,
        "sum3": 146948986,
        "sum4": 0
    },
    {
        "name": "מ. א. שומרון",
        "latitude": "32.0602067",
        "longtitude": "34.7777275",
        "radius": 3,
        "fillkey": "gt50",
        "sum1": 417618199,
        "sum2": 11377898,
        "sum3": 419220940,
        "sum4": 926470
    },
    {
        "name": "מ. א. שער הנגב",
        "latitude": "32.061295",
        "longtitude": "34.876729",
        "radius": 3,
        "fillkey": "gt50",
        "sum1": 131110118,
        "sum2": 3107625,
        "sum3": 101410677,
        "sum4": 503925
    },
    {
        "name": "מ. א. שפיר",
        "latitude": "49.3172765",
        "longtitude": "8.441217199999999",
        "radius": 3,
        "fillkey": "gt50",
        "sum1": 78226397,
        "sum2": 21583894,
        "sum3": 107355952,
        "sum4": 279489
    },
    {
        "name": "מ. א. תמר",
        "latitude": "32.8129034",
        "longtitude": "34.969885",
        "radius": 3,
        "fillkey": "gt50",
        "sum1": 8547416,
        "sum2": 2355420,
        "sum3": 1294066,
        "sum4": 0
    },
    {
        "name": "מ. מ. אבו גוש",
        "latitude": "31.806293",
        "longtitude": "35.109193",
        "radius": 3,
        "fillkey": "gt50",
        "sum1": 34662827,
        "sum2": 5606734,
        "sum3": 58792403,
        "sum4": 88558
    },
    {
        "name": "מ. מ. אבו סנאן",
        "latitude": "32.95803",
        "longtitude": "35.171969",
        "radius": 3,
        "fillkey": "gt50",
        "sum1": 85400735,
        "sum2": 17302147,
        "sum3": 109681848,
        "sum4": 44198
    },
    {
        "name": "מ. מ. אבן יהודה",
        "latitude": "32.276648",
        "longtitude": "34.885087",
        "radius": 3,
        "fillkey": "gt50",
        "sum1": 19988522,
        "sum2": 5168422,
        "sum3": 772961,
        "sum4": 246882
    },
    {
        "name": "מ. מ. אורנית",
        "latitude": "32.131924",
        "longtitude": "34.99081",
        "radius": 3,
        "fillkey": "gt50",
        "sum1": 41847409,
        "sum2": 2979067,
        "sum3": 35412007,
        "sum4": 224603
    },
    {
        "name": "מ. מ. אזור",
        "latitude": "32.029558",
        "longtitude": "34.799648",
        "radius": 3,
        "fillkey": "gt50",
        "sum1": 18388855,
        "sum2": 1196926,
        "sum3": 4256654,
        "sum4": 533275
    },
    {
        "name": "מ. מ. איכסאל",
        "latitude": "32.682085",
        "longtitude": "35.320743",
        "radius": 3,
        "fillkey": "gt50",
        "sum1": 85754752,
        "sum2": 6503091,
        "sum3": 86720339,
        "sum4": 0
    },
    {
        "name": "מ. מ. איעבלין",
        "latitude": "32.821799",
        "longtitude": "35.19012",
        "radius": 3,
        "fillkey": "gt50",
        "sum1": 14370918,
        "sum2": 12760418,
        "sum3": 120809631,
        "sum4": 137970
    },
    {
        "name": "מ. מ. אליכין",
        "latitude": "32.407659",
        "longtitude": "34.925028",
        "radius": 3,
        "fillkey": "gt50",
        "sum1": 6942564,
        "sum2": 4291495,
        "sum3": 50623621,
        "sum4": 0
    },
    {
        "name": "מ. מ. אלפי מנשה",
        "latitude": "32.170631",
        "longtitude": "35.014858",
        "radius": 3,
        "fillkey": "gt50",
        "sum1": 41559373,
        "sum2": 3550036,
        "sum3": 38280455,
        "sum4": 975124
    },
    {
        "name": "מ. מ. אלקנה",
        "latitude": "32.110566",
        "longtitude": "35.032054",
        "radius": 3,
        "fillkey": "gt50",
        "sum1": 28315334,
        "sum2": 2589823,
        "sum3": 39725220,
        "sum4": 0
    },
    {
        "name": "מ. מ. אפרתה",
        "latitude": "31.653589",
        "longtitude": "35.149934",
        "radius": 3,
        "fillkey": "gt50",
        "sum1": 53197353,
        "sum2": 3733034,
        "sum3": 92179383,
        "sum4": 532214
    },
    {
        "name": "מ. מ. באר יעקב",
        "latitude": "31.943507",
        "longtitude": "34.83904",
        "radius": 3,
        "fillkey": "gt50",
        "sum1": 55874246,
        "sum2": 5582627,
        "sum3": 3850849,
        "sum4": 0
    },
    {
        "name": "מ. מ. בועיינה-נוגיידאת",
        "latitude": "32.807711",
        "longtitude": "35.36527",
        "radius": 3,
        "fillkey": "gt50",
        "sum1": 77658666,
        "sum2": 10543069,
        "sum3": 68433782,
        "sum4": 0
    },
    {
        "name": "מ. מ. בוקעאתא",
        "latitude": "33.203065",
        "longtitude": "35.779198",
        "radius": 3,
        "fillkey": "gt50",
        "sum1": 27472141,
        "sum2": 1023182,
        "sum3": 60130964,
        "sum4": 0
    },
    {
        "name": "מ. מ. ביענה",
        "latitude": "32.929538",
        "longtitude": "35.27191699999999",
        "radius": 3,
        "fillkey": "gt50",
        "sum1": 13660091,
        "sum2": 2501793,
        "sum3": 48781803,
        "sum4": 366402
    },
    {
        "name": "מ. מ. ביר אל-מכסור",
        "latitude": "32.777291",
        "longtitude": "35.22057100000001",
        "radius": 3,
        "fillkey": "gt50",
        "sum1": 63450779,
        "sum2": 9723777,
        "sum3": 70773635,
        "sum4": 987530
    },
    {
        "name": "מ. מ. בית אל",
        "latitude": "31.94159999999999",
        "longtitude": "35.222734",
        "radius": 3,
        "fillkey": "gt50",
        "sum1": 42322064,
        "sum2": 8347241,
        "sum3": 90310304,
        "sum4": 224996
    },
    {
        "name": "מ. מ. בית אריה",
        "latitude": "32.040059",
        "longtitude": "35.049472",
        "radius": 3,
        "fillkey": "gt50",
        "sum1": 25443890,
        "sum2": 4909609,
        "sum3": 51570052,
        "sum4": 0
    },
    {
        "name": "מ. מ. בית דגן",
        "latitude": "32.0017816",
        "longtitude": "34.8297087",
        "radius": 3,
        "fillkey": "gt50",
        "sum1": 12455111,
        "sum2": 3546461,
        "sum3": 23179168,
        "sum4": 0
    },
    {
        "name": "מ. מ. בית-גן",
        "latitude": "32.965655",
        "longtitude": "35.381268",
        "radius": 3,
        "fillkey": "gt50",
        "sum1": 105422427,
        "sum2": 19936303,
        "sum3": 112764336,
        "sum4": 1004766
    },
    {
        "name": "מ. מ. בני עיש",
        "latitude": "31.790235",
        "longtitude": "34.759291",
        "radius": 3,
        "fillkey": "gt50",
        "sum1": 9891095,
        "sum2": 2148108,
        "sum3": 63599160,
        "sum4": 116860
    },
    {
        "name": "מ. מ. בנימינה-גבעת עדה",
        "latitude": "32.517078",
        "longtitude": "34.955096",
        "radius": 3,
        "fillkey": "gt50",
        "sum1": 131615,
        "sum2": 2043317,
        "sum3": 27677404,
        "sum4": 0
    },
    {
        "name": "מ. מ. בסמה",
        "latitude": "32.52940100000001",
        "longtitude": "35.103199",
        "radius": 3,
        "fillkey": "gt50",
        "sum1": 38072127,
        "sum2": 16437753,
        "sum3": 71945620,
        "sum4": 116584
    },
    {
        "name": "מ. מ. בסמת טבעון",
        "latitude": "32.736287",
        "longtitude": "35.1532",
        "radius": 3,
        "fillkey": "gt50",
        "sum1": 36552168,
        "sum2": 8395671,
        "sum3": 77592749,
        "sum4": 843328
    },
    {
        "name": "מ. מ. גבעת זאב",
        "latitude": "31.861189",
        "longtitude": "35.167252",
        "radius": 3,
        "fillkey": "gt50",
        "sum1": 24873354,
        "sum2": 2169178,
        "sum3": 99324510,
        "sum4": 786194
    },
    {
        "name": "מ. מ. גדיידה מכר",
        "latitude": "32.928656",
        "longtitude": "35.150573",
        "radius": 3,
        "fillkey": "gt50",
        "sum1": 101084175,
        "sum2": 10148659,
        "sum3": 116313597,
        "sum4": 876971
    },
    {
        "name": "מ. מ. גדרה",
        "latitude": "31.8123014",
        "longtitude": "34.77701920000001",
        "radius": 3,
        "fillkey": "gt50",
        "sum1": 75046919,
        "sum2": 19457488,
        "sum3": 87188434,
        "sum4": 491763
    },
    {
        "name": "מ. מ. גוליס",
        "latitude": "32.94498",
        "longtitude": "35.184243",
        "radius": 3,
        "fillkey": "gt50",
        "sum1": 34411936,
        "sum2": 9878193,
        "sum3": 76639225,
        "sum4": 0
    },
    {
        "name": "מ. מ. גוש חלב",
        "latitude": "33.021266",
        "longtitude": "35.447949",
        "radius": 3,
        "fillkey": "gt50",
        "sum1": 7110748,
        "sum2": 5778213,
        "sum3": 43593163,
        "sum4": 0
    },
    {
        "name": "מ. מ. גיסר אל זרקא",
        "latitude": "32.536262",
        "longtitude": "34.911569",
        "radius": 3,
        "fillkey": "gt50",
        "sum1": 81268161,
        "sum2": 6744305,
        "sum3": 93491792,
        "sum4": 42798
    },
    {
        "name": "מ. מ. גלגוליה",
        "latitude": "32.1524568",
        "longtitude": "34.9539749",
        "radius": 3,
        "fillkey": "gt50",
        "sum1": 54618352,
        "sum2": 10633790,
        "sum3": 67500201,
        "sum4": 0
    },
    {
        "name": "מ. מ. גן יבנה",
        "latitude": "31.783056",
        "longtitude": "34.703101",
        "radius": 3,
        "fillkey": "gt50",
        "sum1": 42000243,
        "sum2": 2527114,
        "sum3": 71731128,
        "sum4": 0
    },
    {
        "name": "מ. מ. גני תקוה",
        "latitude": "32.060497",
        "longtitude": "34.873121",
        "radius": 3,
        "fillkey": "gt50",
        "sum1": 16392616,
        "sum2": 934885,
        "sum3": 38430476,
        "sum4": 0
    },
    {
        "name": "מ. מ. גת",
        "latitude": "31.627796",
        "longtitude": "34.794112",
        "radius": 3,
        "fillkey": "gt50",
        "sum1": 53528432,
        "sum2": 2157906,
        "sum3": 41262075,
        "sum4": 99824
    },
    {
        "name": "מ. מ. דבורייה",
        "latitude": "32.69412",
        "longtitude": "35.368513",
        "radius": 3,
        "fillkey": "gt50",
        "sum1": 28459761,
        "sum2": 6839737,
        "sum3": 124933249,
        "sum4": 92474
    },
    {
        "name": "מ. מ. דייר-חנא",
        "latitude": "32.862316",
        "longtitude": "35.365253",
        "radius": 3,
        "fillkey": "gt50",
        "sum1": 59210188,
        "sum2": 14517177,
        "sum3": 84046987,
        "sum4": 241980
    },
    {
        "name": "מ. מ. דיר אל-אסד",
        "latitude": "32.93445",
        "longtitude": "35.268394",
        "radius": 3,
        "fillkey": "gt50",
        "sum1": 75013763,
        "sum2": 3310448,
        "sum3": 65345673,
        "sum4": 420559
    },
    {
        "name": "מ. מ. דלית אל כרמל",
        "latitude": "32.693796",
        "longtitude": "35.055447",
        "radius": 3,
        "fillkey": "gt50",
        "sum1": 56763434,
        "sum2": 1890945,
        "sum3": 97534443,
        "sum4": 1278833
    },
    {
        "name": "מ. מ. הר-אדר",
        "latitude": "31.824501",
        "longtitude": "35.12966",
        "radius": 3,
        "fillkey": "gt50",
        "sum1": 18882415,
        "sum2": 629431,
        "sum3": 7870717,
        "sum4": 0
    },
    {
        "name": "מ. מ. זכרון יעקב",
        "latitude": "32.573905",
        "longtitude": "34.951977",
        "radius": 3,
        "fillkey": "gt50",
        "sum1": 77601393,
        "sum2": 7921914,
        "sum3": 5298163,
        "sum4": 324420
    },
    {
        "name": "מ. מ. זמר",
        "latitude": "32.365684",
        "longtitude": "35.034651",
        "radius": 3,
        "fillkey": "gt50",
        "sum1": 12214891,
        "sum2": 11964102,
        "sum3": 59553290,
        "sum4": 333130
    },
    {
        "name": "מ. מ. זרזיר",
        "latitude": "32.723291",
        "longtitude": "35.220436",
        "radius": 3,
        "fillkey": "gt50",
        "sum1": 28511418,
        "sum2": 23207137,
        "sum3": 65066099,
        "sum4": 310134
    },
    {
        "name": "מ. מ. חצור הגלילית",
        "latitude": "32.980382",
        "longtitude": "35.543548",
        "radius": 3,
        "fillkey": "gt50",
        "sum1": 25622011,
        "sum2": 2711535,
        "sum3": 137483148,
        "sum4": 565948
    },
    {
        "name": "מ. מ. חריש",
        "latitude": "32.4588241",
        "longtitude": "35.0580878",
        "radius": 3,
        "fillkey": "gt50",
        "sum1": 15456654,
        "sum2": 812893,
        "sum3": 69764056,
        "sum4": 98970
    },
    {
        "name": "מ. מ. טובא-זנגריה",
        "latitude": "32.96621",
        "longtitude": "35.592018",
        "radius": 3,
        "fillkey": "gt50",
        "sum1": 32373930,
        "sum2": 20019915,
        "sum3": 95669198,
        "sum4": 386123
    },
    {
        "name": "מ. מ. טורעאן",
        "latitude": "32.775137",
        "longtitude": "35.378344",
        "radius": 3,
        "fillkey": "gt50",
        "sum1": 52798457,
        "sum2": 14956018,
        "sum3": 136330213,
        "sum4": 507991
    },
    {
        "name": "מ. מ. יבנאל",
        "latitude": "32.708765",
        "longtitude": "35.503778",
        "radius": 3,
        "fillkey": "gt50",
        "sum1": 15811472,
        "sum2": 9435339,
        "sum3": 57244672,
        "sum4": 109685
    },
    {
        "name": "מ. מ. ינוח גת",
        "latitude": "32.981568",
        "longtitude": "35.241169",
        "radius": 3,
        "fillkey": "gt50",
        "sum1": 59255747,
        "sum2": 11018110,
        "sum3": 77851021,
        "sum4": 0
    },
    {
        "name": "מ. מ. יסוד המעלה",
        "latitude": "33.05358",
        "longtitude": "35.589013",
        "radius": 3,
        "fillkey": "gt50",
        "sum1": 4947054,
        "sum2": 1970512,
        "sum3": 14949843,
        "sum4": 112563
    },
    {
        "name": "מ. מ. יפיע",
        "latitude": "32.695002",
        "longtitude": "35.28201",
        "radius": 3,
        "fillkey": "gt50",
        "sum1": 113070774,
        "sum2": 15472042,
        "sum3": 96629765,
        "sum4": 493065
    },
    {
        "name": "מ. מ. ירוחם",
        "latitude": "30.987804",
        "longtitude": "34.929741",
        "radius": 3,
        "fillkey": "gt50",
        "sum1": 38337249,
        "sum2": 15474638,
        "sum3": 134448537,
        "sum4": 294015
    },
    {
        "name": "מ. מ. ירכא",
        "latitude": "32.953492",
        "longtitude": "35.21199",
        "radius": 3,
        "fillkey": "gt50",
        "sum1": 72593234,
        "sum2": 12775144,
        "sum3": 156604024,
        "sum4": 177244
    },
    {
        "name": "מ. מ. כאבול",
        "latitude": "32.8699737",
        "longtitude": "35.2054376",
        "radius": 3,
        "fillkey": "gt50",
        "sum1": 89210091,
        "sum2": 12830572,
        "sum3": 90263240,
        "sum4": 0
    },
    {
        "name": "מ. מ. כוכב יאיר",
        "latitude": "32.220922",
        "longtitude": "34.992405",
        "radius": 3,
        "fillkey": "gt50",
        "sum1": 22072915,
        "sum2": 3528942,
        "sum3": 19914315,
        "sum4": 0
    },
    {
        "name": "מ. מ. כסיפה",
        "latitude": "31.249246",
        "longtitude": "35.083681",
        "radius": 3,
        "fillkey": "gt50",
        "sum1": 81459460,
        "sum2": 8509960,
        "sum3": 98520341,
        "sum4": 749092
    },
    {
        "name": "מ. מ. כסרא סמיע",
        "latitude": "32.97232",
        "longtitude": "35.298528",
        "radius": 3,
        "fillkey": "gt50",
        "sum1": 44670989,
        "sum2": 9759583,
        "sum3": 86679560,
        "sum4": 389309
    },
    {
        "name": "מ. מ. כעבייה-טבאש-חגאגרה",
        "latitude": "32.750389",
        "longtitude": "35.184",
        "radius": 3,
        "fillkey": "gt50",
        "sum1": 20966008,
        "sum2": 8523554,
        "sum3": 54581842,
        "sum4": 480950
    },
    {
        "name": "מ. מ. כפר ורדים",
        "latitude": "32.995088",
        "longtitude": "35.269101",
        "radius": 3,
        "fillkey": "gt50",
        "sum1": 57777683,
        "sum2": 2985011,
        "sum3": 6352622,
        "sum4": 40514
    },
    {
        "name": "מ. מ. כפר יונה",
        "latitude": "32.317719",
        "longtitude": "34.933615",
        "radius": 3,
        "fillkey": "gt50",
        "sum1": 83721553,
        "sum2": 4070708,
        "sum3": 102012248,
        "sum4": 1989353
    },
    {
        "name": "מ. מ. כפר יסיף",
        "latitude": "32.9520318",
        "longtitude": "35.1599957",
        "radius": 3,
        "fillkey": "gt50",
        "sum1": 53584984,
        "sum2": 2700627,
        "sum3": 82322565,
        "sum4": 0
    },
    {
        "name": "מ. מ. כפר מנדא",
        "latitude": "32.81236",
        "longtitude": "35.258613",
        "radius": 3,
        "fillkey": "gt50",
        "sum1": 139724159,
        "sum2": 11311068,
        "sum3": 154521196,
        "sum4": 582607
    },
    {
        "name": "מ. מ. כפר קמה",
        "latitude": "32.721105",
        "longtitude": "35.442834",
        "radius": 3,
        "fillkey": "gt50",
        "sum1": 7782074,
        "sum2": 6720807,
        "sum3": 45799293,
        "sum4": 462162
    },
    {
        "name": "מ. מ. כפר קרע",
        "latitude": "32.505518",
        "longtitude": "35.054251",
        "radius": 3,
        "fillkey": "gt50",
        "sum1": 83019368,
        "sum2": 9696967,
        "sum3": 90104999,
        "sum4": 453181
    },
    {
        "name": "מ. מ. כפר שמריהו",
        "latitude": "32.187123",
        "longtitude": "34.823124",
        "radius": 3,
        "fillkey": "gt50",
        "sum1": 4191100,
        "sum2": 1576847,
        "sum3": 176961,
        "sum4": 0
    },
    {
        "name": "מ. מ. כפר תבור",
        "latitude": "32.687346",
        "longtitude": "35.419972",
        "radius": 3,
        "fillkey": "gt50",
        "sum1": 10316179,
        "sum2": 1519647,
        "sum3": 13738397,
        "sum4": 0
    },
    {
        "name": "מ. מ. כפר-ברא",
        "latitude": "32.130911",
        "longtitude": "34.970108",
        "radius": 3,
        "fillkey": "gt50",
        "sum1": 14312951,
        "sum2": 5459288,
        "sum3": 47596237,
        "sum4": 385721
    },
    {
        "name": "מ. מ. כפר-כנא",
        "latitude": "32.7481978",
        "longtitude": "35.3438402",
        "radius": 3,
        "fillkey": "gt50",
        "sum1": 83801009,
        "sum2": 4513994,
        "sum3": 172311834,
        "sum4": 524436
    },
    {
        "name": "מ. מ. להבים",
        "latitude": "31.373835",
        "longtitude": "34.816952",
        "radius": 3,
        "fillkey": "gt50",
        "sum1": 17115344,
        "sum2": 2745539,
        "sum3": 2871120,
        "sum4": 7433
    },
    {
        "name": "מ. מ. לקיה",
        "latitude": "31.324884",
        "longtitude": "34.866219",
        "radius": 3,
        "fillkey": "gt50",
        "sum1": 49680924,
        "sum2": 10613410,
        "sum3": 82500364,
        "sum4": 654966
    },
    {
        "name": "מ. מ. מבשרת ציון",
        "latitude": "31.804052",
        "longtitude": "35.157891",
        "radius": 3,
        "fillkey": "gt50",
        "sum1": 58319316,
        "sum2": 1817350,
        "sum3": 85650156,
        "sum4": 859714
    },
    {
        "name": "מ. מ. מגאר",
        "latitude": "32.890704",
        "longtitude": "35.40461",
        "radius": 3,
        "fillkey": "gt50",
        "sum1": 176258844,
        "sum2": 29159405,
        "sum3": 151535122,
        "sum4": 2659334
    },
    {
        "name": "מ. מ. מגד אל-כרום",
        "latitude": "32.920132",
        "longtitude": "35.25665",
        "radius": 3,
        "fillkey": "gt50",
        "sum1": 68554459,
        "sum2": 4707050,
        "sum3": 79492421,
        "sum4": 284330
    },
    {
        "name": "מ. מ. מגדל",
        "latitude": "32.839494",
        "longtitude": "35.499849",
        "radius": 3,
        "fillkey": "gt50",
        "sum1": 5634900,
        "sum2": 2267121,
        "sum3": 27729517,
        "sum4": 228115
    },
    {
        "name": "מ. מ. מגדל תפן",
        "latitude": "32.9742996",
        "longtitude": "35.2761141",
        "radius": 3,
        "fillkey": "gt50",
        "sum1": 5175399,
        "sum2": 388971,
        "sum3": 24658,
        "sum4": 0
    },
    {
        "name": "מ. מ. מזרעה",
        "latitude": "32.983652",
        "longtitude": "35.098934",
        "radius": 3,
        "fillkey": "gt50",
        "sum1": 12727475,
        "sum2": 5392675,
        "sum3": 46413021,
        "sum4": 58764
    },
    {
        "name": "מ. מ. מטולה",
        "latitude": "33.277232",
        "longtitude": "35.578235",
        "radius": 3,
        "fillkey": "gt50",
        "sum1": 7722544,
        "sum2": 9678079,
        "sum3": 16870388,
        "sum4": 9738
    },
    {
        "name": "מ. מ. מיתר",
        "latitude": "31.327011",
        "longtitude": "34.943213",
        "radius": 3,
        "fillkey": "gt50",
        "sum1": 19178540,
        "sum2": 5002117,
        "sum3": 7881175,
        "sum4": 213560
    },
    {
        "name": "מ. מ. מכבים-רעות",
        "latitude": "31.890267",
        "longtitude": "35.010397",
        "radius": 3,
        "fillkey": "gt50",
        "sum1": 0,
        "sum2": 67401,
        "sum3": 0,
        "sum4": 0
    },
    {
        "name": "מ. מ. מנחמיה",
        "latitude": "32.664333",
        "longtitude": "35.55533800000001",
        "radius": 3,
        "fillkey": "gt50",
        "sum1": 0,
        "sum2": 0,
        "sum3": 5861926,
        "sum4": 0
    },
    {
        "name": "מ. מ. מסעדה",
        "latitude": "33.23105",
        "longtitude": "35.756289",
        "radius": 3,
        "fillkey": "gt50",
        "sum1": 49916436,
        "sum2": 4425822,
        "sum3": 48416896,
        "sum4": 0
    },
    {
        "name": "מ. מ. מעיליא",
        "latitude": "33.027194",
        "longtitude": "35.256304",
        "radius": 3,
        "fillkey": "gt50",
        "sum1": 2290285,
        "sum2": 16582137,
        "sum3": 43924087,
        "sum4": 0
    },
    {
        "name": "מ. מ. מעלה אפרים",
        "latitude": "32.071304",
        "longtitude": "35.4039",
        "radius": 3,
        "fillkey": "gt50",
        "sum1": 8646047,
        "sum2": 3033839,
        "sum3": 55070187,
        "sum4": 246710
    },
    {
        "name": "מ. מ. מעלה עירון",
        "latitude": "32.554128",
        "longtitude": "35.182499",
        "radius": 3,
        "fillkey": "gt50",
        "sum1": 100210307,
        "sum2": 22073552,
        "sum3": 103844246,
        "sum4": 0
    },
    {
        "name": "מ. מ. מצפה רמון",
        "latitude": "30.610203",
        "longtitude": "34.801898",
        "radius": 3,
        "fillkey": "gt50",
        "sum1": 46513858,
        "sum2": 7489080,
        "sum3": 50224008,
        "sum4": 572987
    },
    {
        "name": "מ. מ. נחף",
        "latitude": "32.934675",
        "longtitude": "35.31652",
        "radius": 3,
        "fillkey": "gt50",
        "sum1": 102267405,
        "sum2": 5080564,
        "sum3": 110597425,
        "sum4": 79600
    },
    {
        "name": "מ. מ. סאגור",
        "latitude": "32.943109",
        "longtitude": "35.343616",
        "radius": 3,
        "fillkey": "gt50",
        "sum1": 20668245,
        "sum2": 13738130,
        "sum3": 67485909,
        "sum4": 190709
    },
    {
        "name": "מ. מ. סביון",
        "latitude": "32.045589",
        "longtitude": "34.87657799999999",
        "radius": 3,
        "fillkey": "gt50",
        "sum1": 2848133,
        "sum2": 436869,
        "sum3": 184844,
        "sum4": 0
    },
    {
        "name": "מ. מ. עומר",
        "latitude": "31.264305",
        "longtitude": "34.849864",
        "radius": 3,
        "fillkey": "gt50",
        "sum1": 70309544,
        "sum2": 643029,
        "sum3": 2213653,
        "sum4": 87107
    },
    {
        "name": "מ. מ. עוספייא",
        "latitude": "32.720737",
        "longtitude": "35.059087",
        "radius": 3,
        "fillkey": "gt50",
        "sum1": 40173934,
        "sum2": 3116538,
        "sum3": 80341985,
        "sum4": 662249
    },
    {
        "name": "מ. מ. עילבון",
        "latitude": "32.837949",
        "longtitude": "35.399996",
        "radius": 3,
        "fillkey": "gt50",
        "sum1": 9559615,
        "sum2": 7629653,
        "sum3": 51906982,
        "sum4": 220140
    },
    {
        "name": "מ. מ. עילוט",
        "latitude": "32.717249",
        "longtitude": "35.261482",
        "radius": 3,
        "fillkey": "gt50",
        "sum1": 49576239,
        "sum2": 12843557,
        "sum3": 78153249,
        "sum4": 484430
    },
    {
        "name": "מ. מ. עימנואל",
        "latitude": "32.160688",
        "longtitude": "35.136036",
        "radius": 3,
        "fillkey": "gt50",
        "sum1": 10322117,
        "sum2": 2149051,
        "sum3": 83461350,
        "sum4": 241486
    },
    {
        "name": "מ. מ. עין מאהל",
        "latitude": "32.724295",
        "longtitude": "35.353369",
        "radius": 3,
        "fillkey": "gt50",
        "sum1": 91659555,
        "sum2": 5316529,
        "sum3": 97231897,
        "sum4": 0
    },
    {
        "name": "מ. מ. ערערה-בנגב",
        "latitude": "31.160927",
        "longtitude": "35.019757",
        "radius": 3,
        "fillkey": "gt50",
        "sum1": 90445553,
        "sum2": 19349818,
        "sum3": 117146038,
        "sum4": 823277
    },
    {
        "name": "מ. מ. פוריידיס",
        "latitude": "32.597351",
        "longtitude": "34.951899",
        "radius": 3,
        "fillkey": "gt50",
        "sum1": 91415738,
        "sum2": 10279973,
        "sum3": 70084824,
        "sum4": 0
    },
    {
        "name": "מ. מ. פסוטה",
        "latitude": "33.04782",
        "longtitude": "35.308827",
        "radius": 3,
        "fillkey": "gt50",
        "sum1": 6191823,
        "sum2": 8065395,
        "sum3": 53120771,
        "sum4": 0
    },
    {
        "name": "מ. מ. פקיעין",
        "latitude": "32.976209",
        "longtitude": "35.335794",
        "radius": 3,
        "fillkey": "gt50",
        "sum1": 50324686,
        "sum2": 32241746,
        "sum3": 74056893,
        "sum4": 659935
    },
    {
        "name": "מ. מ. פרדס-חנה-כרכור",
        "latitude": "32.4728028",
        "longtitude": "34.9742001",
        "radius": 3,
        "fillkey": "gt50",
        "sum1": 70205567,
        "sum2": 12871993,
        "sum3": 120689570,
        "sum4": 0
    },
    {
        "name": "מ. מ. פרדסיה",
        "latitude": "32.305011",
        "longtitude": "34.911731",
        "radius": 3,
        "fillkey": "gt50",
        "sum1": 10822665,
        "sum2": 2349010,
        "sum3": 33317439,
        "sum4": 279140
    },
    {
        "name": "מ. מ. צורן",
        "latitude": "32.277644",
        "longtitude": "34.919297",
        "radius": 3,
        "fillkey": "gt50",
        "sum1": 0,
        "sum2": 7001,
        "sum3": 0,
        "sum4": 0
    },
    {
        "name": "מ. מ. קדומים",
        "latitude": "32.21239",
        "longtitude": "35.157388",
        "radius": 3,
        "fillkey": "gt50",
        "sum1": 30123676,
        "sum2": 6686787,
        "sum3": 70101309,
        "sum4": 557061
    },
    {
        "name": "מ. מ. קדימה-צורן",
        "latitude": "32.277644",
        "longtitude": "34.919297",
        "radius": 3,
        "fillkey": "gt50",
        "sum1": 9613475,
        "sum2": 3775535,
        "sum3": 35858399,
        "sum4": 907937
    },
    {
        "name": "מ. מ. קצרין",
        "latitude": "32.990998",
        "longtitude": "35.689865",
        "radius": 3,
        "fillkey": "gt50",
        "sum1": 24227758,
        "sum2": 6541140,
        "sum3": 114415906,
        "sum4": 272733
    },
    {
        "name": "מ. מ. קרית ארבע",
        "latitude": "31.529326",
        "longtitude": "35.115625",
        "radius": 3,
        "fillkey": "gt50",
        "sum1": 55699713,
        "sum2": 3507658,
        "sum3": 123350386,
        "sum4": 521038
    },
    {
        "name": "מ. מ. קרית טבעון",
        "latitude": "32.716221",
        "longtitude": "35.127483",
        "radius": 3,
        "fillkey": "gt50",
        "sum1": 23507336,
        "sum2": 6088428,
        "sum3": 3944646,
        "sum4": 939873
    },
    {
        "name": "מ. מ. קרית יערים",
        "latitude": "31.802774",
        "longtitude": "35.099945",
        "radius": 3,
        "fillkey": "gt50",
        "sum1": 10614821,
        "sum2": 2214325,
        "sum3": 59233277,
        "sum4": 0
    },
    {
        "name": "מ. מ. קרית עקרון",
        "latitude": "31.862547",
        "longtitude": "34.8219576",
        "radius": 3,
        "fillkey": "gt50",
        "sum1": 23907217,
        "sum2": 14267106,
        "sum3": 45313151,
        "sum4": 932629
    },
    {
        "name": "מ. מ. קרני שומרון",
        "latitude": "32.171553",
        "longtitude": "35.097462",
        "radius": 3,
        "fillkey": "gt50",
        "sum1": 57175382,
        "sum2": 8681963,
        "sum3": 84666335,
        "sum4": 309362
    },
    {
        "name": "מ. מ. ראמה",
        "latitude": "32.937112",
        "longtitude": "35.366984",
        "radius": 3,
        "fillkey": "gt50",
        "sum1": 50072702,
        "sum2": 11568054,
        "sum3": 89115285,
        "sum4": 0
    },
    {
        "name": "מ. מ. ראש פינה",
        "latitude": "32.970422",
        "longtitude": "35.542659",
        "radius": 3,
        "fillkey": "gt50",
        "sum1": 5114352,
        "sum2": 5294959,
        "sum3": 1197551,
        "sum4": 253203
    },
    {
        "name": "מ. מ. ריינה",
        "latitude": "32.719924",
        "longtitude": "35.317654",
        "radius": 3,
        "fillkey": "gt50",
        "sum1": 89405045,
        "sum2": 8085010,
        "sum3": 90892299,
        "sum4": 189832
    },
    {
        "name": "מ. מ. רכסים",
        "latitude": "32.749265",
        "longtitude": "35.099581",
        "radius": 3,
        "fillkey": "gt50",
        "sum1": 43804144,
        "sum2": 7107359,
        "sum3": 110541679,
        "sum4": 335558
    },
    {
        "name": "מ. מ. רמת חובב",
        "latitude": "32.0163717",
        "longtitude": "34.7970643",
        "radius": 3,
        "fillkey": "gt50",
        "sum1": 0,
        "sum2": 0,
        "sum3": 0,
        "sum4": 0
    },
    {
        "name": "מ. מ. רמת ישי",
        "latitude": "32.704029",
        "longtitude": "35.166003",
        "radius": 3,
        "fillkey": "gt50",
        "sum1": 10569870,
        "sum2": 4954481,
        "sum3": 10845473,
        "sum4": 243743
    },
    {
        "name": "מ. מ. שבלי",
        "latitude": "32.694081",
        "longtitude": "35.396231",
        "radius": 3,
        "fillkey": "gt50",
        "sum1": 28859253,
        "sum2": 23626115,
        "sum3": 60654302,
        "sum4": 529736
    },
    {
        "name": "מ. מ. שגב-שלום",
        "latitude": "31.198361",
        "longtitude": "34.839665",
        "radius": 3,
        "fillkey": "gt50",
        "sum1": 67890970,
        "sum2": 12792889,
        "sum3": 63035216,
        "sum4": 495959
    },
    {
        "name": "מ. מ. שהם",
        "latitude": "31.9957581",
        "longtitude": "34.9488403",
        "radius": 3,
        "fillkey": "gt50",
        "sum1": 138172090,
        "sum2": 7510487,
        "sum3": 16955338,
        "sum4": 1033857
    },
    {
        "name": "מ. מ. שלומי",
        "latitude": "33.072609",
        "longtitude": "35.145945",
        "radius": 3,
        "fillkey": "gt50",
        "sum1": 39902253,
        "sum2": 15062360,
        "sum3": 46428440,
        "sum4": 329728
    },
    {
        "name": "מ. מ. שעב",
        "latitude": "32.88967",
        "longtitude": "35.238764",
        "radius": 3,
        "fillkey": "gt50",
        "sum1": 60168884,
        "sum2": 5946048,
        "sum3": 73862130,
        "sum4": 174752
    },
    {
        "name": "מ. מ. תל מונד",
        "latitude": "32.256608",
        "longtitude": "34.91846",
        "radius": 3,
        "fillkey": "gt50",
        "sum1": 104194859,
        "sum2": 2414168,
        "sum3": 28520067,
        "sum4": 0
    },
    {
        "name": "מ. מ. תל שבע",
        "latitude": "31.247569",
        "longtitude": "34.861193",
        "radius": 3,
        "fillkey": "gt50",
        "sum1": 74804696,
        "sum2": 6384017,
        "sum3": 99253166,
        "sum4": 783994
    },
    {
        "name": "עיריית אלעד",
        "latitude": "33.007505",
        "longtitude": "35.218308",
        "radius": 3,
        "fillkey": "gt50",
        "sum1": 133284673,
        "sum2": 7034315,
        "sum3": 205717500,
        "sum4": 0
    },
    {
        "name": "עיריית גבעת שמואל",
        "latitude": "32.07510200000001",
        "longtitude": "34.846397",
        "radius": 3,
        "fillkey": "gt50",
        "sum1": 42074274,
        "sum2": 10922231,
        "sum3": 34484519,
        "sum4": 149980
    },
    {
        "name": "עיריית כפר קאסם",
        "latitude": "32.1151675",
        "longtitude": "34.9759816",
        "radius": 3,
        "fillkey": "gt50",
        "sum1": 120069598,
        "sum2": 8873455,
        "sum3": 128553666,
        "sum4": 834102
    },
    {
        "name": "עיריית מודיעין עילית",
        "latitude": "31.924467",
        "longtitude": "35.0440271",
        "radius": 3,
        "fillkey": "gt50",
        "sum1": 241860459,
        "sum2": 41754935,
        "sum3": 269618406,
        "sum4": 62146
    },
    {
        "name": "עירית אום-אל-פחם",
        "latitude": "32.517127",
        "longtitude": "35.148529",
        "radius": 3,
        "fillkey": "gt50",
        "sum1": 362727058,
        "sum2": 22862388,
        "sum3": 181661134,
        "sum4": 1287476
    },
    {
        "name": "עירית אופקים",
        "latitude": "31.311337",
        "longtitude": "34.622824",
        "radius": 3,
        "fillkey": "gt50",
        "sum1": 57947465,
        "sum2": 12526590,
        "sum3": 282670354,
        "sum4": 1786937
    },
    {
        "name": "עירית אור יהודה",
        "latitude": "32.029748",
        "longtitude": "34.85617300000001",
        "radius": 3,
        "fillkey": "gt50",
        "sum1": 85067346,
        "sum2": 9940677,
        "sum3": 83989752,
        "sum4": 2301909
    },
    {
        "name": "עירית אור עקיבא",
        "latitude": "32.509965",
        "longtitude": "34.920394",
        "radius": 3,
        "fillkey": "gt50",
        "sum1": 70605695,
        "sum2": 16023620,
        "sum3": 140405321,
        "sum4": 1712971
    },
    {
        "name": "עירית אילת",
        "latitude": "29.557669",
        "longtitude": "34.951925",
        "radius": 3,
        "fillkey": "gt50",
        "sum1": 345763860,
        "sum2": 25104551,
        "sum3": 50775645,
        "sum4": 5005471
    },
    {
        "name": "עירית אל-טירה",
        "latitude": "32.227364",
        "longtitude": "34.941904",
        "radius": 3,
        "fillkey": "gt50",
        "sum1": 52432246,
        "sum2": 28532531,
        "sum3": 119221019,
        "sum4": 1370573
    },
    {
        "name": "עירית אריאל",
        "latitude": "32.104637",
        "longtitude": "35.17451399999999",
        "radius": 3,
        "fillkey": "gt50",
        "sum1": 42391003,
        "sum2": 19013046,
        "sum3": 142570958,
        "sum4": 1269466
    },
    {
        "name": "עירית אשדוד",
        "latitude": "31.804381",
        "longtitude": "34.655314",
        "radius": 3,
        "fillkey": "gt50",
        "sum1": 904766479,
        "sum2": 66796686,
        "sum3": 27797978,
        "sum4": 6635468
    },
    {
        "name": "עירית אשקלון",
        "latitude": "31.6687885",
        "longtitude": "34.5742523",
        "radius": 3,
        "fillkey": "gt50",
        "sum1": 289923662,
        "sum2": 52804243,
        "sum3": 34211635,
        "sum4": 4204038
    },
    {
        "name": "עירית באר שבע",
        "latitude": "31.252973",
        "longtitude": "34.791462",
        "radius": 3,
        "fillkey": "gt50",
        "sum1": 724724016,
        "sum2": 135235718,
        "sum3": 65320304,
        "sum4": 3729797
    },
    {
        "name": "עירית בית שאן",
        "latitude": "32.497103",
        "longtitude": "35.497336",
        "radius": 3,
        "fillkey": "gt50",
        "sum1": 55811561,
        "sum2": 51083556,
        "sum3": 320248383,
        "sum4": 436961
    },
    {
        "name": "עירית בית-שמש",
        "latitude": "31.747041",
        "longtitude": "34.988099",
        "radius": 3,
        "fillkey": "gt50",
        "sum1": 202864321,
        "sum2": 27903415,
        "sum3": 361321280,
        "sum4": 3798735
    },
    {
        "name": "עירית ביתר עילית",
        "latitude": "31.7010023",
        "longtitude": "35.1119254",
        "radius": 3,
        "fillkey": "gt50",
        "sum1": 181239158,
        "sum2": 13897257,
        "sum3": 274055470,
        "sum4": 763241
    },
    {
        "name": "עירית בני ברק",
        "latitude": "32.084932",
        "longtitude": "34.835226",
        "radius": 3,
        "fillkey": "gt50",
        "sum1": 953660892,
        "sum2": 40039643,
        "sum3": 535788418,
        "sum4": 726120
    },
    {
        "name": "עירית בת-ים",
        "latitude": "32.013186",
        "longtitude": "34.748019",
        "radius": 3,
        "fillkey": "gt50",
        "sum1": 335407496,
        "sum2": 18611041,
        "sum3": 266064327,
        "sum4": 4653325
    },
    {
        "name": "עירית גבעתיים",
        "latitude": "32.072176",
        "longtitude": "34.808871",
        "radius": 3,
        "fillkey": "gt50",
        "sum1": 139914231,
        "sum2": 11832648,
        "sum3": 10125228,
        "sum4": 4730703
    },
    {
        "name": "עירית דימונה",
        "latitude": "31.069419",
        "longtitude": "35.033363",
        "radius": 3,
        "fillkey": "gt50",
        "sum1": 80246551,
        "sum2": 18013530,
        "sum3": 297894855,
        "sum4": 4589669
    },
    {
        "name": "עירית הוד השרון",
        "latitude": "32.149961",
        "longtitude": "34.8838788",
        "radius": 3,
        "fillkey": "gt50",
        "sum1": 184580207,
        "sum2": 18518631,
        "sum3": 3275879,
        "sum4": 382618
    },
    {
        "name": "עירית הרצליה",
        "latitude": "32.162413",
        "longtitude": "34.844675",
        "radius": 3,
        "fillkey": "gt50",
        "sum1": 388513258,
        "sum2": 8819391,
        "sum3": 13168988,
        "sum4": 0
    },
    {
        "name": "עירית חדרה",
        "latitude": "32.4340458",
        "longtitude": "34.9196518",
        "radius": 3,
        "fillkey": "gt50",
        "sum1": 109000700,
        "sum2": 61220406,
        "sum3": 21507718,
        "sum4": 2900331
    },
    {
        "name": "עירית חולון",
        "latitude": "32.015833",
        "longtitude": "34.787384",
        "radius": 3,
        "fillkey": "gt50",
        "sum1": 634305376,
        "sum2": 42682299,
        "sum3": 36446515,
        "sum4": 4202800
    },
    {
        "name": "עירית חיפה",
        "latitude": "32.7940463",
        "longtitude": "34.989571",
        "radius": 3,
        "fillkey": "gt50",
        "sum1": 586099426,
        "sum2": 4236710884,
        "sum3": 27526126,
        "sum4": 5049112
    },
    {
        "name": "עירית טבריה",
        "latitude": "32.795859",
        "longtitude": "35.530973",
        "radius": 3,
        "fillkey": "gt50",
        "sum1": 92644306,
        "sum2": 139466482,
        "sum3": 141212035,
        "sum4": 4225503
    },
    {
        "name": "עירית טייבה",
        "latitude": "32.266892",
        "longtitude": "35.009675",
        "radius": 3,
        "fillkey": "gt50",
        "sum1": 37747499,
        "sum2": 12877953,
        "sum3": 210176027,
        "sum4": 875746
    },
    {
        "name": "עירית טירת כרמל",
        "latitude": "32.762127",
        "longtitude": "34.97298",
        "radius": 3,
        "fillkey": "gt50",
        "sum1": 107104546,
        "sum2": 14351487,
        "sum3": 34097220,
        "sum4": 1257578
    },
    {
        "name": "עירית טמרה",
        "latitude": "32.852247",
        "longtitude": "35.201315",
        "radius": 3,
        "fillkey": "gt50",
        "sum1": 282397979,
        "sum2": 17595711,
        "sum3": 171058636,
        "sum4": 2246670
    },
    {
        "name": "עירית יבנה",
        "latitude": "31.877958",
        "longtitude": "34.739449",
        "radius": 3,
        "fillkey": "gt50",
        "sum1": 191963746,
        "sum2": 19526422,
        "sum3": 8790559,
        "sum4": 733580
    },
    {
        "name": "עירית יהוד-מונוסון",
        "latitude": "32.029338",
        "longtitude": "34.879579",
        "radius": 3,
        "fillkey": "gt50",
        "sum1": 121904,
        "sum2": 123629,
        "sum3": 2069827,
        "sum4": 620117
    },
    {
        "name": "עירית יקנעם עילית",
        "latitude": "32.660225",
        "longtitude": "35.104606",
        "radius": 3,
        "fillkey": "gt50",
        "sum1": 78871560,
        "sum2": 7111269,
        "sum3": 52558082,
        "sum4": 1175405
    },
    {
        "name": "עירית ירושלים",
        "latitude": "31.768319",
        "longtitude": "35.21371",
        "radius": 3,
        "fillkey": "gt50",
        "sum1": 1887483925,
        "sum2": 2577830435,
        "sum3": 1632200187,
        "sum4": 40470385
    },
    {
        "name": "עירית כפר סבא",
        "latitude": "32.178195",
        "longtitude": "34.90761",
        "radius": 3,
        "fillkey": "gt50",
        "sum1": 397429167,
        "sum2": 12468594,
        "sum3": 5553193,
        "sum4": 4612283
    },
    {
        "name": "עירית כרמיאל",
        "latitude": "32.914671",
        "longtitude": "35.292417",
        "radius": 3,
        "fillkey": "gt50",
        "sum1": 91158527,
        "sum2": 7055891,
        "sum3": 60362538,
        "sum4": 3491787
    },
    {
        "name": "עירית לוד",
        "latitude": "31.951014",
        "longtitude": "34.888075",
        "radius": 3,
        "fillkey": "gt50",
        "sum1": 285289593,
        "sum2": 21052862,
        "sum3": 348726731,
        "sum4": 9258411
    },
    {
        "name": "עירית מגדל העמק",
        "latitude": "32.673501",
        "longtitude": "35.243444",
        "radius": 3,
        "fillkey": "gt50",
        "sum1": 76651141,
        "sum2": 15055911,
        "sum3": 148209119,
        "sum4": 2452523
    },
    {
        "name": "עירית מודיעין",
        "latitude": "31.890267",
        "longtitude": "35.010397",
        "radius": 3,
        "fillkey": "gt50",
        "sum1": 0,
        "sum2": 1565690,
        "sum3": 5273977,
        "sum4": 0
    },
    {
        "name": "עירית מעלה אדומים",
        "latitude": "31.777369",
        "longtitude": "35.297955",
        "radius": 3,
        "fillkey": "gt50",
        "sum1": 121562851,
        "sum2": 4670185,
        "sum3": 174945870,
        "sum4": 4747043
    },
    {
        "name": "עירית מעלות תרשיחא",
        "latitude": "33.015026",
        "longtitude": "35.276017",
        "radius": 3,
        "fillkey": "gt50",
        "sum1": 71245786,
        "sum2": 12428399,
        "sum3": 213096548,
        "sum4": 1506434
    },
    {
        "name": "עירית נהריה",
        "latitude": "33.0085361",
        "longtitude": "35.0980514",
        "radius": 3,
        "fillkey": "gt50",
        "sum1": 131916578,
        "sum2": 74937056,
        "sum3": 204692857,
        "sum4": 3784187
    },
    {
        "name": "עירית נס ציונה",
        "latitude": "31.932111",
        "longtitude": "34.801327",
        "radius": 3,
        "fillkey": "gt50",
        "sum1": 217759513,
        "sum2": 26673748,
        "sum3": 4979768,
        "sum4": 2836832
    },
    {
        "name": "עירית נצרת",
        "latitude": "32.699635",
        "longtitude": "35.303546",
        "radius": 3,
        "fillkey": "gt50",
        "sum1": 297226727,
        "sum2": 51829524,
        "sum3": 259040587,
        "sum4": 3728042
    },
    {
        "name": "עירית נצרת עילית",
        "latitude": "32.711539",
        "longtitude": "35.324812",
        "radius": 3,
        "fillkey": "gt50",
        "sum1": 63770865,
        "sum2": 31990110,
        "sum3": 107734610,
        "sum4": 4974076
    },
    {
        "name": "עירית נשר",
        "latitude": "32.7649",
        "longtitude": "35.049191",
        "radius": 3,
        "fillkey": "gt50",
        "sum1": 91681016,
        "sum2": 5673073,
        "sum3": 2593050,
        "sum4": 578772
    },
    {
        "name": "עירית נתיבות",
        "latitude": "31.423196",
        "longtitude": "34.595254",
        "radius": 3,
        "fillkey": "gt50",
        "sum1": 184004620,
        "sum2": 25875231,
        "sum3": 243749307,
        "sum4": 2278767
    },
    {
        "name": "עירית נתניה",
        "latitude": "32.321458",
        "longtitude": "34.853196",
        "radius": 3,
        "fillkey": "gt50",
        "sum1": 856319430,
        "sum2": 84561566,
        "sum3": 17848831,
        "sum4": 4793097
    },
    {
        "name": "עירית סחנין",
        "latitude": "32.864167",
        "longtitude": "35.294547",
        "radius": 3,
        "fillkey": "gt50",
        "sum1": 238094700,
        "sum2": 43954722,
        "sum3": 204924873,
        "sum4": 1195508
    },
    {
        "name": "עירית עכו",
        "latitude": "32.933052",
        "longtitude": "35.082678",
        "radius": 3,
        "fillkey": "gt50",
        "sum1": 110020592,
        "sum2": 235005042,
        "sum3": 281824372,
        "sum4": 4193821
    },
    {
        "name": "עירית עפולה",
        "latitude": "32.610493",
        "longtitude": "35.287922",
        "radius": 3,
        "fillkey": "gt50",
        "sum1": 112785681,
        "sum2": 46750796,
        "sum3": 45174771,
        "sum4": 2823770
    },
    {
        "name": "עירית ערד",
        "latitude": "31.261447",
        "longtitude": "35.214862",
        "radius": 3,
        "fillkey": "gt50",
        "sum1": 35398943,
        "sum2": 12409446,
        "sum3": 213001985,
        "sum4": 592843
    },
    {
        "name": "עירית פתח תקוה",
        "latitude": "32.084041",
        "longtitude": "34.887762",
        "radius": 3,
        "fillkey": "gt50",
        "sum1": 608990375,
        "sum2": 20300942,
        "sum3": 20341714,
        "sum4": 367292
    },
    {
        "name": "עירית צפת",
        "latitude": "32.964648",
        "longtitude": "35.495997",
        "radius": 3,
        "fillkey": "gt50",
        "sum1": 92872891,
        "sum2": 36629794,
        "sum3": 318552095,
        "sum4": 2232260
    },
    {
        "name": "עירית קלנסווה",
        "latitude": "32.285791",
        "longtitude": "34.981487",
        "radius": 3,
        "fillkey": "gt50",
        "sum1": 65071535,
        "sum2": 10020372,
        "sum3": 103229765,
        "sum4": 181858
    },
    {
        "name": "עירית קרית אונו",
        "latitude": "32.054863",
        "longtitude": "34.85885800000001",
        "radius": 3,
        "fillkey": "gt50",
        "sum1": 197449850,
        "sum2": 9125657,
        "sum3": 9607756,
        "sum4": 1249867
    },
    {
        "name": "עירית קרית אתא",
        "latitude": "32.809144",
        "longtitude": "35.119773",
        "radius": 3,
        "fillkey": "gt50",
        "sum1": 241496368,
        "sum2": 213483193,
        "sum3": 131734956,
        "sum4": 925199
    },
    {
        "name": "עירית קרית ביאליק",
        "latitude": "32.832154",
        "longtitude": "35.088407",
        "radius": 3,
        "fillkey": "gt50",
        "sum1": 36108213,
        "sum2": 11791567,
        "sum3": 11983369,
        "sum4": 2555354
    },
    {
        "name": "עירית קרית גת",
        "latitude": "31.611148",
        "longtitude": "34.768459",
        "radius": 3,
        "fillkey": "gt50",
        "sum1": 327936434,
        "sum2": 18617307,
        "sum3": 206499335,
        "sum4": 3769689
    },
    {
        "name": "עירית קרית ים",
        "latitude": "32.849276",
        "longtitude": "35.068929",
        "radius": 3,
        "fillkey": "gt50",
        "sum1": 157186120,
        "sum2": 10561700,
        "sum3": 247362220,
        "sum4": 2206386
    },
    {
        "name": "עירית קרית מוצקין",
        "latitude": "32.838202",
        "longtitude": "35.079523",
        "radius": 3,
        "fillkey": "gt50",
        "sum1": 40006428,
        "sum2": 10215817,
        "sum3": 120687132,
        "sum4": 702222
    },
    {
        "name": "עירית קרית מלאכי",
        "latitude": "31.730202",
        "longtitude": "34.746996",
        "radius": 3,
        "fillkey": "gt50",
        "sum1": 71960935,
        "sum2": 4967373,
        "sum3": 188282391,
        "sum4": 519587
    },
    {
        "name": "עירית קרית שמונה",
        "latitude": "33.207933",
        "longtitude": "35.570246",
        "radius": 3,
        "fillkey": "gt50",
        "sum1": 117138789,
        "sum2": 20988759,
        "sum3": 202062072,
        "sum4": 673681
    },
    {
        "name": "עירית ראש העין",
        "latitude": "32.095838",
        "longtitude": "34.952177",
        "radius": 3,
        "fillkey": "gt50",
        "sum1": 223671718,
        "sum2": 17272070,
        "sum3": 5246140,
        "sum4": 2753424
    },
    {
        "name": "עירית רהט",
        "latitude": "31.394548",
        "longtitude": "34.753934",
        "radius": 3,
        "fillkey": "gt50",
        "sum1": 308531686,
        "sum2": 27716608,
        "sum3": 204718082,
        "sum4": 4129971
    },
    {
        "name": "עירית רחובות",
        "latitude": "31.892773",
        "longtitude": "34.811272",
        "radius": 3,
        "fillkey": "gt50",
        "sum1": 432852845,
        "sum2": 47565927,
        "sum3": 15439076,
        "sum4": 1234642
    },
    {
        "name": "עירית רמלה",
        "latitude": "31.931566",
        "longtitude": "34.872938",
        "radius": 3,
        "fillkey": "gt50",
        "sum1": 188604562,
        "sum2": 18864165,
        "sum3": 322568000,
        "sum4": 4472512
    },
    {
        "name": "עירית רמת גן",
        "latitude": "32.068424",
        "longtitude": "34.824785",
        "radius": 3,
        "fillkey": "gt50",
        "sum1": 550936715,
        "sum2": 30678123,
        "sum3": 35329559,
        "sum4": 9918864
    },
    {
        "name": "עירית רמת השרון",
        "latitude": "32.137793",
        "longtitude": "34.840278",
        "radius": 3,
        "fillkey": "gt50",
        "sum1": 185410354,
        "sum2": 5088473,
        "sum3": 7913171,
        "sum4": 646434
    },
    {
        "name": "עירית רעננה",
        "latitude": "32.184781",
        "longtitude": "34.871326",
        "radius": 3,
        "fillkey": "gt50",
        "sum1": 329404593,
        "sum2": 5257757,
        "sum3": 10990065,
        "sum4": 0
    },
    {
        "name": "עירית שדרות",
        "latitude": "31.52269399999999",
        "longtitude": "34.595581",
        "radius": 3,
        "fillkey": "gt50",
        "sum1": 189330867,
        "sum2": 14847107,
        "sum3": 365958426,
        "sum4": 2296483
    },
    {
        "name": "עירית שפרעם",
        "latitude": "32.80576500000001",
        "longtitude": "35.169971",
        "radius": 3,
        "fillkey": "gt50",
        "sum1": 171774050,
        "sum2": 46782391,
        "sum3": 165100507,
        "sum4": 3457990
    },
    {
        "name": "עירית תל-אביב-יפו",
        "latitude": "32.0852999",
        "longtitude": "34.78176759999999",
        "radius": 3,
        "fillkey": "gt50",
        "sum1": 828361279,
        "sum2": 57346851,
        "sum3": 78009827,
        "sum4": 31798142
    }
]