[
    {
        "name": "מ. א. אבו בסמה",
        "latitude": 31.2582381,
        "longitude": 34.9671981,
        "radius": 3,
        "fillkey": "gt50",
        "sum1": 476143956,
        "sum2": 53560012,
        "sum3": 114384200,
        "sum4": 0
    },
    {
        "name": "מ. א. אל-בטוף",
        "latitude": 32.8117921,
        "longitude": 35.2618281,
        "radius": 3,
        "fillkey": "gt50",
        "sum1": 83276084,
        "sum2": 16285251,
        "sum3": 71590729,
        "sum4": 674693
    },
    {
        "name": "מ. א. אלונה",
        "latitude": 32.5569681,
        "longitude": 35.0222941,
        "radius": 3,
        "fillkey": "gt50",
        "sum1": 11966124,
        "sum2": 3427451,
        "sum3": 42101767,
        "sum4": 0
    },
    {
        "name": "מ. א. אפעל",
        "latitude": 32.095901,
        "longitude": 34.84751,
        "radius": 3,
        "fillkey": "gt50",
        "sum1": 2174235,
        "sum2": 0,
        "sum3": 21347,
        "sum4": 0
    },
    {
        "name": "מ. א. אשכול",
        "latitude": 31.799871,
        "longitude": 34.7388981,
        "radius": 3,
        "fillkey": "gt50",
        "sum1": 186488095,
        "sum2": 3851921,
        "sum3": 211970791,
        "sum4": 0
    },
    {
        "name": "מ. א. באר-טוביה",
        "latitude": 31.737121,
        "longitude": 34.72551,
        "radius": 3,
        "fillkey": "gt50",
        "sum1": 102522948,
        "sum2": 2306621,
        "sum3": 1717588,
        "sum4": 957117
    },
    {
        "name": "מ. א. בוסתאן אל-מרג",
        "latitude": 32.6311651,
        "longitude": 35.3548541,
        "radius": 3,
        "fillkey": "gt50",
        "sum1": 45561264,
        "sum2": 7484945,
        "sum3": 66750610,
        "sum4": 0
    },
    {
        "name": "מ. א. בני שמעון",
        "latitude": 31.82165779999991,
        "longitude": 34.7827811,
        "radius": 3,
        "fillkey": "gt50",
        "sum1": 60458043,
        "sum2": 11467171,
        "sum3": 34704229,
        "sum4": 271803
    },
    {
        "name": "מ. א. ברנר",
        "latitude": 31.8602661,
        "longitude": 34.7851261,
        "radius": 3,
        "fillkey": "gt50",
        "sum1": 43853490,
        "sum2": 2443517,
        "sum3": 1778863,
        "sum4": 0
    },
    {
        "name": "מ. א. גדרות",
        "latitude": 31.830751,
        "longitude": 34.7354031,
        "radius": 3,
        "fillkey": "gt50",
        "sum1": 27965785,
        "sum2": 3835725,
        "sum3": 21183291,
        "sum4": 0
    },
    {
        "name": "מ. א. גולן",
        "latitude": 33.01558540000001,
        "longitude": 35.784351,
        "radius": 3,
        "fillkey": "gt50",
        "sum1": 129281859,
        "sum2": 40739191,
        "sum3": 226762563,
        "sum4": 398464
    },
    {
        "name": "מ. א. גוש עציון",
        "latitude": 31.2557361,
        "longitude": 34.8071631,
        "radius": 3,
        "fillkey": "gt50",
        "sum1": 237704108,
        "sum2": 2838122,
        "sum3": 179024714,
        "sum4": 276652
    },
    {
        "name": "מ. א. גזר",
        "latitude": 31.876341,
        "longitude": 34.92111,
        "radius": 3,
        "fillkey": "gt50",
        "sum1": 114420992,
        "sum2": 7351779,
        "sum3": 26792947,
        "sum4": 0
    },
    {
        "name": "מ. א. גן רוה",
        "latitude": 31.9172631,
        "longitude": 34.7464551,
        "radius": 3,
        "fillkey": "gt50",
        "sum1": 27974917,
        "sum2": 960682,
        "sum3": 1875061,
        "sum4": 0
    },
    {
        "name": "מ. א. דרום השרון",
        "latitude": 32.1412441,
        "longitude": 34.9230951,
        "radius": 3,
        "fillkey": "gt50",
        "sum1": 157577637,
        "sum2": 4841539,
        "sum3": 8806238,
        "sum4": 1583795
    },
    {
        "name": "מ. א. הגלבוע",
        "latitude": 32.433881,
        "longitude": 35.414441,
        "radius": 3,
        "fillkey": "gt50",
        "sum1": 189083348,
        "sum2": 28675929,
        "sum3": 185286490,
        "sum4": 1371990
    },
    {
        "name": "מ. א. הגליל העליון",
        "latitude": 32.969051,
        "longitude": 35.5493051,
        "radius": 3,
        "fillkey": "gt50",
        "sum1": 112081844,
        "sum2": 16498153,
        "sum3": 149387451,
        "sum4": 56291
    },
    {
        "name": "מ. א. הגליל התחתון",
        "latitude": 32.7856671,
        "longitude": 35.5403601,
        "radius": 3,
        "fillkey": "gt50",
        "sum1": 78118811,
        "sum2": 25093056,
        "sum3": 66249158,
        "sum4": 0
    },
    {
        "name": "מ. א. הערבה התיכונה",
        "latitude": 29.567721,
        "longitude": 34.957241,
        "radius": 3,
        "fillkey": "gt50",
        "sum1": 28492573,
        "sum2": 6281193,
        "sum3": 27124827,
        "sum4": 21304
    },
    {
        "name": "מ. א. הר חברון",
        "latitude": 31.532561,
        "longitude": 35.09982600000001,
        "radius": 3,
        "fillkey": "gt50",
        "sum1": 138946667,
        "sum2": 4695545,
        "sum3": 200518420,
        "sum4": 231767
    },
    {
        "name": "מ. א. זבולון",
        "latitude": 32.803611,
        "longitude": 35.090471,
        "radius": 3,
        "fillkey": "gt50",
        "sum1": 66818099,
        "sum2": 17542735,
        "sum3": 55154554,
        "sum4": 43611
    },
    {
        "name": "מ. א. חבל אילות",
        "latitude": 30.130871,
        "longitude": 34.9506621,
        "radius": 3,
        "fillkey": "gt50",
        "sum1": 37612229,
        "sum2": 18950366,
        "sum3": 8139750,
        "sum4": 1500
    },
    {
        "name": "מ. א. חבל יבנה",
        "latitude": 31.9208891,
        "longitude": 34.8697001,
        "radius": 3,
        "fillkey": "gt50",
        "sum1": 34880913,
        "sum2": 2193088,
        "sum3": 34195703,
        "sum4": 0
    },
    {
        "name": "מ. א. חוף אשקלון",
        "latitude": 31.734091,
        "longitude": 34.6343971,
        "radius": 3,
        "fillkey": "gt50",
        "sum1": 170893024,
        "sum2": 11999966,
        "sum3": 133555730,
        "sum4": 1060732
    },
    {
        "name": "מ. א. חוף הכרמל",
        "latitude": 32.793531,
        "longitude": 34.957531,
        "radius": 3,
        "fillkey": "gt50",
        "sum1": 123949407,
        "sum2": 10076535,
        "sum3": 52390731,
        "sum4": 615199
    },
    {
        "name": "מ. א. חוף השרון",
        "latitude": 32.354651,
        "longitude": 34.856191,
        "radius": 3,
        "fillkey": "gt50",
        "sum1": 51924685,
        "sum2": 6367523,
        "sum3": 1972701,
        "sum4": 128353
    },
    {
        "name": "מ. א. יואב",
        "latitude": 32.1247411,
        "longitude": 34.83609130000001,
        "radius": 3,
        "fillkey": "gt50",
        "sum1": 60161184,
        "sum2": 4409467,
        "sum3": 12526273,
        "sum4": 263051
    },
    {
        "name": "מ. א. לב השרון",
        "latitude": 32.2736041,
        "longitude": 34.9451491,
        "radius": 3,
        "fillkey": "gt50",
        "sum1": 117056599,
        "sum2": 6265091,
        "sum3": 6534646,
        "sum4": 309239
    },
    {
        "name": "מ. א. לכיש",
        "latitude": 31.560901,
        "longitude": 34.84401,
        "radius": 3,
        "fillkey": "gt50",
        "sum1": 72258506,
        "sum2": 7193499,
        "sum3": 102859615,
        "sum4": 0
    },
    {
        "name": "מ. א. מבואות החרמון",
        "latitude": 32.962381,
        "longitude": 35.512821,
        "radius": 3,
        "fillkey": "gt50",
        "sum1": 51827630,
        "sum2": 27903227,
        "sum3": 101218549,
        "sum4": 783064
    },
    {
        "name": "מ. א. מגידו",
        "latitude": 32.577891,
        "longitude": 35.179971,
        "radius": 3,
        "fillkey": "gt50",
        "sum1": 59129781,
        "sum2": 2914949,
        "sum3": 10472109,
        "sum4": 142031
    },
    {
        "name": "מ. א. מגילות ים המלח",
        "latitude": 31.6270721,
        "longitude": 35.3685671,
        "radius": 3,
        "fillkey": "gt50",
        "sum1": 36801479,
        "sum2": 2481874,
        "sum3": 37146916,
        "sum4": 3570
    },
    {
        "name": "מ. א. מטה אשר",
        "latitude": 32.8501321,
        "longitude": 35.0674311,
        "radius": 3,
        "fillkey": "gt50",
        "sum1": 222557709,
        "sum2": 13002855,
        "sum3": 202240045,
        "sum4": 309287
    },
    {
        "name": "מ. א. מטה בנימין",
        "latitude": 31.8873081,
        "longitude": 35.0052621,
        "radius": 3,
        "fillkey": "gt50",
        "sum1": 601638111,
        "sum2": 6128670,
        "sum3": 488012514,
        "sum4": 0
    },
    {
        "name": "מ. א. מטה יהודה",
        "latitude": 31.8905521,
        "longitude": 35.0045921,
        "radius": 3,
        "fillkey": "gt50",
        "sum1": 330990117,
        "sum2": 14105217,
        "sum3": 233958228,
        "sum4": 144035
    },
    {
        "name": "מ. א. מנשה",
        "latitude": 31.8129451,
        "longitude": 34.7869901,
        "radius": 3,
        "fillkey": "gt50",
        "sum1": 91184426,
        "sum2": 10478689,
        "sum3": 82154539,
        "sum4": 0
    },
    {
        "name": "מ. א. מעלה יוסף",
        "latitude": 31.8880691,
        "longitude": 35.0054191,
        "radius": 3,
        "fillkey": "gt50",
        "sum1": 83265406,
        "sum2": 12918487,
        "sum3": 138963390,
        "sum4": 904010
    },
    {
        "name": "מ. א. מרום הגליל",
        "latitude": 32.969051,
        "longitude": 35.5493051,
        "radius": 3,
        "fillkey": "gt50",
        "sum1": 111948910,
        "sum2": 22928042,
        "sum3": 192601888,
        "sum4": 100657
    },
    {
        "name": "מ. א. מרחבים",
        "latitude": 31.07478559999991,
        "longitude": 35.0376681,
        "radius": 3,
        "fillkey": "gt50",
        "sum1": 92590679,
        "sum2": 10063580,
        "sum3": 82866251,
        "sum4": 0
    },
    {
        "name": "מ. א. משגב",
        "latitude": 32.9188251,
        "longitude": 35.2949021,
        "radius": 3,
        "fillkey": "gt50",
        "sum1": 146444933,
        "sum2": 25294786,
        "sum3": 145201634,
        "sum4": 658945
    },
    {
        "name": "מ. א. נחל שורק",
        "latitude": 31.7156741,
        "longitude": 34.9921781,
        "radius": 3,
        "fillkey": "gt50",
        "sum1": 119192965,
        "sum2": 13862448,
        "sum3": 105911233,
        "sum4": 0
    },
    {
        "name": "מ. א. עמק הירדן",
        "latitude": 32.6621841,
        "longitude": 35.5577121,
        "radius": 3,
        "fillkey": "gt50",
        "sum1": 71546057,
        "sum2": 25440662,
        "sum3": 50209333,
        "sum4": 16350
    },
    {
        "name": "מ. א. עמק המעיינות",
        "latitude": 32.4978371,
        "longitude": 35.5000991,
        "radius": 3,
        "fillkey": "gt50",
        "sum1": 91324340,
        "sum2": 26579527,
        "sum3": 97127058,
        "sum4": 282289
    },
    {
        "name": "מ. א. עמק חפר",
        "latitude": 32.3335931,
        "longitude": 35.0123341,
        "radius": 3,
        "fillkey": "gt50",
        "sum1": 184808816,
        "sum2": 9758915,
        "sum3": 69964949,
        "sum4": 0
    },
    {
        "name": "מ. א. עמק יזרעאל",
        "latitude": 32.562581,
        "longitude": 35.319421,
        "radius": 3,
        "fillkey": "gt50",
        "sum1": 199107744,
        "sum2": 10861769,
        "sum3": 58163605,
        "sum4": 2191702
    },
    {
        "name": "מ. א. עמק לוד",
        "latitude": 31.945261,
        "longitude": 34.875151,
        "radius": 3,
        "fillkey": "gt50",
        "sum1": 80134932,
        "sum2": 15274084,
        "sum3": 27747285,
        "sum4": 0
    },
    {
        "name": "מ. א. ערבות הירדן",
        "latitude": 32.1159941,
        "longitude": 35.4562791,
        "radius": 3,
        "fillkey": "gt50",
        "sum1": 82985747,
        "sum2": 2540949,
        "sum3": 133683948,
        "sum4": 0
    },
    {
        "name": "מ. א. רמת נגב",
        "latitude": 32.061291,
        "longitude": 34.876721,
        "radius": 3,
        "fillkey": "gt50",
        "sum1": 57247888,
        "sum2": 18761687,
        "sum3": 10017944,
        "sum4": 326848
    },
    {
        "name": "מ. א. שדות נגב",
        "latitude": 31.4144481,
        "longitude": 34.5417611,
        "radius": 3,
        "fillkey": "gt50",
        "sum1": 124848571,
        "sum2": 8538065,
        "sum3": 146948986,
        "sum4": 0
    },
    {
        "name": "מ. א. שומרון",
        "latitude": 32.0602061,
        "longitude": 34.7777271,
        "radius": 3,
        "fillkey": "gt50",
        "sum1": 417618199,
        "sum2": 11377898,
        "sum3": 419220940,
        "sum4": 926470
    },
    {
        "name": "מ. א. שער הנגב",
        "latitude": 32.061291,
        "longitude": 34.876721,
        "radius": 3,
        "fillkey": "gt50",
        "sum1": 131110118,
        "sum2": 3107625,
        "sum3": 101410677,
        "sum4": 503925
    },
    {
        "name": "מ. א. שפיר",
        "latitude": 49.3172761,
        "longitude": 8.441217199999991,
        "radius": 3,
        "fillkey": "gt50",
        "sum1": 78226397,
        "sum2": 21583894,
        "sum3": 107355952,
        "sum4": 279489
    },
    {
        "name": "מ. א. תמר",
        "latitude": 32.8129031,
        "longitude": 34.969881,
        "radius": 3,
        "fillkey": "gt50",
        "sum1": 8547416,
        "sum2": 2355420,
        "sum3": 1294066,
        "sum4": 0
    },
    {
        "name": "מ. מ. אבו גוש",
        "latitude": 31.806291,
        "longitude": 35.109191,
        "radius": 3,
        "fillkey": "gt50",
        "sum1": 34662827,
        "sum2": 5606734,
        "sum3": 58792403,
        "sum4": 88558
    },
    {
        "name": "מ. מ. אבו סנאן",
        "latitude": 32.95801,
        "longitude": 35.171961,
        "radius": 3,
        "fillkey": "gt50",
        "sum1": 85400735,
        "sum2": 17302147,
        "sum3": 109681848,
        "sum4": 44198
    },
    {
        "name": "מ. מ. אבן יהודה",
        "latitude": 32.276641,
        "longitude": 34.885081,
        "radius": 3,
        "fillkey": "gt50",
        "sum1": 19988522,
        "sum2": 5168422,
        "sum3": 772961,
        "sum4": 246882
    },
    {
        "name": "מ. מ. אורנית",
        "latitude": 32.131921,
        "longitude": 34.99081,
        "radius": 3,
        "fillkey": "gt50",
        "sum1": 41847409,
        "sum2": 2979067,
        "sum3": 35412007,
        "sum4": 224603
    },
    {
        "name": "מ. מ. אזור",
        "latitude": 32.029551,
        "longitude": 34.799641,
        "radius": 3,
        "fillkey": "gt50",
        "sum1": 18388855,
        "sum2": 1196926,
        "sum3": 4256654,
        "sum4": 533275
    },
    {
        "name": "מ. מ. איכסאל",
        "latitude": 32.682081,
        "longitude": 35.320741,
        "radius": 3,
        "fillkey": "gt50",
        "sum1": 85754752,
        "sum2": 6503091,
        "sum3": 86720339,
        "sum4": 0
    },
    {
        "name": "מ. מ. איעבלין",
        "latitude": 32.821791,
        "longitude": 35.19011,
        "radius": 3,
        "fillkey": "gt50",
        "sum1": 14370918,
        "sum2": 12760418,
        "sum3": 120809631,
        "sum4": 137970
    },
    {
        "name": "מ. מ. אליכין",
        "latitude": 32.407651,
        "longitude": 34.925021,
        "radius": 3,
        "fillkey": "gt50",
        "sum1": 6942564,
        "sum2": 4291495,
        "sum3": 50623621,
        "sum4": 0
    },
    {
        "name": "מ. מ. אלפי מנשה",
        "latitude": 32.170631,
        "longitude": 35.014851,
        "radius": 3,
        "fillkey": "gt50",
        "sum1": 41559373,
        "sum2": 3550036,
        "sum3": 38280455,
        "sum4": 975124
    },
    {
        "name": "מ. מ. אלקנה",
        "latitude": 32.110561,
        "longitude": 35.032051,
        "radius": 3,
        "fillkey": "gt50",
        "sum1": 28315334,
        "sum2": 2589823,
        "sum3": 39725220,
        "sum4": 0
    },
    {
        "name": "מ. מ. אפרתה",
        "latitude": 31.653581,
        "longitude": 35.149931,
        "radius": 3,
        "fillkey": "gt50",
        "sum1": 53197353,
        "sum2": 3733034,
        "sum3": 92179383,
        "sum4": 532214
    },
    {
        "name": "מ. מ. באר יעקב",
        "latitude": 31.943501,
        "longitude": 34.83901,
        "radius": 3,
        "fillkey": "gt50",
        "sum1": 55874246,
        "sum2": 5582627,
        "sum3": 3850849,
        "sum4": 0
    },
    {
        "name": "מ. מ. בועיינה-נוגיידאת",
        "latitude": 32.807711,
        "longitude": 35.36521,
        "radius": 3,
        "fillkey": "gt50",
        "sum1": 77658666,
        "sum2": 10543069,
        "sum3": 68433782,
        "sum4": 0
    },
    {
        "name": "מ. מ. בוקעאתא",
        "latitude": 33.203061,
        "longitude": 35.779191,
        "radius": 3,
        "fillkey": "gt50",
        "sum1": 27472141,
        "sum2": 1023182,
        "sum3": 60130964,
        "sum4": 0
    },
    {
        "name": "מ. מ. ביענה",
        "latitude": 32.929531,
        "longitude": 35.27191699999991,
        "radius": 3,
        "fillkey": "gt50",
        "sum1": 13660091,
        "sum2": 2501793,
        "sum3": 48781803,
        "sum4": 366402
    },
    {
        "name": "מ. מ. ביר אל-מכסור",
        "latitude": 32.777291,
        "longitude": 35.22057100000001,
        "radius": 3,
        "fillkey": "gt50",
        "sum1": 63450779,
        "sum2": 9723777,
        "sum3": 70773635,
        "sum4": 987530
    },
    {
        "name": "מ. מ. בית אל",
        "latitude": 31.94159999999991,
        "longitude": 35.222731,
        "radius": 3,
        "fillkey": "gt50",
        "sum1": 42322064,
        "sum2": 8347241,
        "sum3": 90310304,
        "sum4": 224996
    },
    {
        "name": "מ. מ. בית אריה",
        "latitude": 32.040051,
        "longitude": 35.049471,
        "radius": 3,
        "fillkey": "gt50",
        "sum1": 25443890,
        "sum2": 4909609,
        "sum3": 51570052,
        "sum4": 0
    },
    {
        "name": "מ. מ. בית דגן",
        "latitude": 32.0017811,
        "longitude": 34.8297081,
        "radius": 3,
        "fillkey": "gt50",
        "sum1": 12455111,
        "sum2": 3546461,
        "sum3": 23179168,
        "sum4": 0
    },
    {
        "name": "מ. מ. בית-גן",
        "latitude": 32.965651,
        "longitude": 35.381261,
        "radius": 3,
        "fillkey": "gt50",
        "sum1": 105422427,
        "sum2": 19936303,
        "sum3": 112764336,
        "sum4": 1004766
    },
    {
        "name": "מ. מ. בני עיש",
        "latitude": 31.790231,
        "longitude": 34.759291,
        "radius": 3,
        "fillkey": "gt50",
        "sum1": 9891095,
        "sum2": 2148108,
        "sum3": 63599160,
        "sum4": 116860
    },
    {
        "name": "מ. מ. בנימינה-גבעת עדה",
        "latitude": 32.517071,
        "longitude": 34.955091,
        "radius": 3,
        "fillkey": "gt50",
        "sum1": 131615,
        "sum2": 2043317,
        "sum3": 27677404,
        "sum4": 0
    },
    {
        "name": "מ. מ. בסמה",
        "latitude": 32.52940100000001,
        "longitude": 35.103191,
        "radius": 3,
        "fillkey": "gt50",
        "sum1": 38072127,
        "sum2": 16437753,
        "sum3": 71945620,
        "sum4": 116584
    },
    {
        "name": "מ. מ. בסמת טבעון",
        "latitude": 32.736281,
        "longitude": 35.1531,
        "radius": 3,
        "fillkey": "gt50",
        "sum1": 36552168,
        "sum2": 8395671,
        "sum3": 77592749,
        "sum4": 843328
    },
    {
        "name": "מ. מ. גבעת זאב",
        "latitude": 31.861181,
        "longitude": 35.167251,
        "radius": 3,
        "fillkey": "gt50",
        "sum1": 24873354,
        "sum2": 2169178,
        "sum3": 99324510,
        "sum4": 786194
    },
    {
        "name": "מ. מ. גדיידה מכר",
        "latitude": 32.928651,
        "longitude": 35.150571,
        "radius": 3,
        "fillkey": "gt50",
        "sum1": 101084175,
        "sum2": 10148659,
        "sum3": 116313597,
        "sum4": 876971
    },
    {
        "name": "מ. מ. גדרה",
        "latitude": 31.8123011,
        "longitude": 34.77701920000001,
        "radius": 3,
        "fillkey": "gt50",
        "sum1": 75046919,
        "sum2": 19457488,
        "sum3": 87188434,
        "sum4": 491763
    },
    {
        "name": "מ. מ. גוליס",
        "latitude": 32.94491,
        "longitude": 35.184241,
        "radius": 3,
        "fillkey": "gt50",
        "sum1": 34411936,
        "sum2": 9878193,
        "sum3": 76639225,
        "sum4": 0
    },
    {
        "name": "מ. מ. גוש חלב",
        "latitude": 33.021261,
        "longitude": 35.447941,
        "radius": 3,
        "fillkey": "gt50",
        "sum1": 7110748,
        "sum2": 5778213,
        "sum3": 43593163,
        "sum4": 0
    },
    {
        "name": "מ. מ. גיסר אל זרקא",
        "latitude": 32.536261,
        "longitude": 34.911561,
        "radius": 3,
        "fillkey": "gt50",
        "sum1": 81268161,
        "sum2": 6744305,
        "sum3": 93491792,
        "sum4": 42798
    },
    {
        "name": "מ. מ. גלגוליה",
        "latitude": 32.1524561,
        "longitude": 34.9539741,
        "radius": 3,
        "fillkey": "gt50",
        "sum1": 54618352,
        "sum2": 10633790,
        "sum3": 67500201,
        "sum4": 0
    },
    {
        "name": "מ. מ. גן יבנה",
        "latitude": 31.783051,
        "longitude": 34.703101,
        "radius": 3,
        "fillkey": "gt50",
        "sum1": 42000243,
        "sum2": 2527114,
        "sum3": 71731128,
        "sum4": 0
    },
    {
        "name": "מ. מ. גני תקוה",
        "latitude": 32.060491,
        "longitude": 34.873121,
        "radius": 3,
        "fillkey": "gt50",
        "sum1": 16392616,
        "sum2": 934885,
        "sum3": 38430476,
        "sum4": 0
    },
    {
        "name": "מ. מ. גת",
        "latitude": 31.627791,
        "longitude": 34.794111,
        "radius": 3,
        "fillkey": "gt50",
        "sum1": 53528432,
        "sum2": 2157906,
        "sum3": 41262075,
        "sum4": 99824
    },
    {
        "name": "מ. מ. דבורייה",
        "latitude": 32.69411,
        "longitude": 35.368511,
        "radius": 3,
        "fillkey": "gt50",
        "sum1": 28459761,
        "sum2": 6839737,
        "sum3": 124933249,
        "sum4": 92474
    },
    {
        "name": "מ. מ. דייר-חנא",
        "latitude": 32.862311,
        "longitude": 35.365251,
        "radius": 3,
        "fillkey": "gt50",
        "sum1": 59210188,
        "sum2": 14517177,
        "sum3": 84046987,
        "sum4": 241980
    },
    {
        "name": "מ. מ. דיר אל-אסד",
        "latitude": 32.93441,
        "longitude": 35.268391,
        "radius": 3,
        "fillkey": "gt50",
        "sum1": 75013763,
        "sum2": 3310448,
        "sum3": 65345673,
        "sum4": 420559
    },
    {
        "name": "מ. מ. דלית אל כרמל",
        "latitude": 32.693791,
        "longitude": 35.055441,
        "radius": 3,
        "fillkey": "gt50",
        "sum1": 56763434,
        "sum2": 1890945,
        "sum3": 97534443,
        "sum4": 1278833
    },
    {
        "name": "מ. מ. הר-אדר",
        "latitude": 31.824501,
        "longitude": 35.12961,
        "radius": 3,
        "fillkey": "gt50",
        "sum1": 18882415,
        "sum2": 629431,
        "sum3": 7870717,
        "sum4": 0
    },
    {
        "name": "מ. מ. זכרון יעקב",
        "latitude": 32.573901,
        "longitude": 34.951971,
        "radius": 3,
        "fillkey": "gt50",
        "sum1": 77601393,
        "sum2": 7921914,
        "sum3": 5298163,
        "sum4": 324420
    },
    {
        "name": "מ. מ. זמר",
        "latitude": 32.365681,
        "longitude": 35.034651,
        "radius": 3,
        "fillkey": "gt50",
        "sum1": 12214891,
        "sum2": 11964102,
        "sum3": 59553290,
        "sum4": 333130
    },
    {
        "name": "מ. מ. זרזיר",
        "latitude": 32.723291,
        "longitude": 35.220431,
        "radius": 3,
        "fillkey": "gt50",
        "sum1": 28511418,
        "sum2": 23207137,
        "sum3": 65066099,
        "sum4": 310134
    },
    {
        "name": "מ. מ. חצור הגלילית",
        "latitude": 32.980381,
        "longitude": 35.543541,
        "radius": 3,
        "fillkey": "gt50",
        "sum1": 25622011,
        "sum2": 2711535,
        "sum3": 137483148,
        "sum4": 565948
    },
    {
        "name": "מ. מ. חריש",
        "latitude": 32.4588241,
        "longitude": 35.0580871,
        "radius": 3,
        "fillkey": "gt50",
        "sum1": 15456654,
        "sum2": 812893,
        "sum3": 69764056,
        "sum4": 98970
    },
    {
        "name": "מ. מ. טובא-זנגריה",
        "latitude": 32.96621,
        "longitude": 35.592011,
        "radius": 3,
        "fillkey": "gt50",
        "sum1": 32373930,
        "sum2": 20019915,
        "sum3": 95669198,
        "sum4": 386123
    },
    {
        "name": "מ. מ. טורעאן",
        "latitude": 32.775131,
        "longitude": 35.378341,
        "radius": 3,
        "fillkey": "gt50",
        "sum1": 52798457,
        "sum2": 14956018,
        "sum3": 136330213,
        "sum4": 507991
    },
    {
        "name": "מ. מ. יבנאל",
        "latitude": 32.708761,
        "longitude": 35.503771,
        "radius": 3,
        "fillkey": "gt50",
        "sum1": 15811472,
        "sum2": 9435339,
        "sum3": 57244672,
        "sum4": 109685
    },
    {
        "name": "מ. מ. ינוח גת",
        "latitude": 32.981561,
        "longitude": 35.241161,
        "radius": 3,
        "fillkey": "gt50",
        "sum1": 59255747,
        "sum2": 11018110,
        "sum3": 77851021,
        "sum4": 0
    },
    {
        "name": "מ. מ. יסוד המעלה",
        "latitude": 33.05351,
        "longitude": 35.589011,
        "radius": 3,
        "fillkey": "gt50",
        "sum1": 4947054,
        "sum2": 1970512,
        "sum3": 14949843,
        "sum4": 112563
    },
    {
        "name": "מ. מ. יפיע",
        "latitude": 32.695001,
        "longitude": 35.28201,
        "radius": 3,
        "fillkey": "gt50",
        "sum1": 113070774,
        "sum2": 15472042,
        "sum3": 96629765,
        "sum4": 493065
    },
    {
        "name": "מ. מ. ירוחם",
        "latitude": 30.987801,
        "longitude": 34.929741,
        "radius": 3,
        "fillkey": "gt50",
        "sum1": 38337249,
        "sum2": 15474638,
        "sum3": 134448537,
        "sum4": 294015
    },
    {
        "name": "מ. מ. ירכא",
        "latitude": 32.953491,
        "longitude": 35.21191,
        "radius": 3,
        "fillkey": "gt50",
        "sum1": 72593234,
        "sum2": 12775144,
        "sum3": 156604024,
        "sum4": 177244
    },
    {
        "name": "מ. מ. כאבול",
        "latitude": 32.8699731,
        "longitude": 35.2054371,
        "radius": 3,
        "fillkey": "gt50",
        "sum1": 89210091,
        "sum2": 12830572,
        "sum3": 90263240,
        "sum4": 0
    },
    {
        "name": "מ. מ. כוכב יאיר",
        "latitude": 32.220921,
        "longitude": 34.992401,
        "radius": 3,
        "fillkey": "gt50",
        "sum1": 22072915,
        "sum2": 3528942,
        "sum3": 19914315,
        "sum4": 0
    },
    {
        "name": "מ. מ. כסיפה",
        "latitude": 31.249241,
        "longitude": 35.083681,
        "radius": 3,
        "fillkey": "gt50",
        "sum1": 81459460,
        "sum2": 8509960,
        "sum3": 98520341,
        "sum4": 749092
    },
    {
        "name": "מ. מ. כסרא סמיע",
        "latitude": 32.97231,
        "longitude": 35.298521,
        "radius": 3,
        "fillkey": "gt50",
        "sum1": 44670989,
        "sum2": 9759583,
        "sum3": 86679560,
        "sum4": 389309
    },
    {
        "name": "מ. מ. כעבייה-טבאש-חגאגרה",
        "latitude": 32.750381,
        "longitude": 35.181,
        "radius": 3,
        "fillkey": "gt50",
        "sum1": 20966008,
        "sum2": 8523554,
        "sum3": 54581842,
        "sum4": 480950
    },
    {
        "name": "מ. מ. כפר ורדים",
        "latitude": 32.995081,
        "longitude": 35.269101,
        "radius": 3,
        "fillkey": "gt50",
        "sum1": 57777683,
        "sum2": 2985011,
        "sum3": 6352622,
        "sum4": 40514
    },
    {
        "name": "מ. מ. כפר יונה",
        "latitude": 32.317711,
        "longitude": 34.933611,
        "radius": 3,
        "fillkey": "gt50",
        "sum1": 83721553,
        "sum2": 4070708,
        "sum3": 102012248,
        "sum4": 1989353
    },
    {
        "name": "מ. מ. כפר יסיף",
        "latitude": 32.9520311,
        "longitude": 35.1599951,
        "radius": 3,
        "fillkey": "gt50",
        "sum1": 53584984,
        "sum2": 2700627,
        "sum3": 82322565,
        "sum4": 0
    },
    {
        "name": "מ. מ. כפר מנדא",
        "latitude": 32.81231,
        "longitude": 35.258611,
        "radius": 3,
        "fillkey": "gt50",
        "sum1": 139724159,
        "sum2": 11311068,
        "sum3": 154521196,
        "sum4": 582607
    },
    {
        "name": "מ. מ. כפר קמה",
        "latitude": 32.721101,
        "longitude": 35.442831,
        "radius": 3,
        "fillkey": "gt50",
        "sum1": 7782074,
        "sum2": 6720807,
        "sum3": 45799293,
        "sum4": 462162
    },
    {
        "name": "מ. מ. כפר קרע",
        "latitude": 32.505511,
        "longitude": 35.054251,
        "radius": 3,
        "fillkey": "gt50",
        "sum1": 83019368,
        "sum2": 9696967,
        "sum3": 90104999,
        "sum4": 453181
    },
    {
        "name": "מ. מ. כפר שמריהו",
        "latitude": 32.187121,
        "longitude": 34.823121,
        "radius": 3,
        "fillkey": "gt50",
        "sum1": 4191100,
        "sum2": 1576847,
        "sum3": 176961,
        "sum4": 0
    },
    {
        "name": "מ. מ. כפר תבור",
        "latitude": 32.687341,
        "longitude": 35.419971,
        "radius": 3,
        "fillkey": "gt50",
        "sum1": 10316179,
        "sum2": 1519647,
        "sum3": 13738397,
        "sum4": 0
    },
    {
        "name": "מ. מ. כפר-ברא",
        "latitude": 32.130911,
        "longitude": 34.970101,
        "radius": 3,
        "fillkey": "gt50",
        "sum1": 14312951,
        "sum2": 5459288,
        "sum3": 47596237,
        "sum4": 385721
    },
    {
        "name": "מ. מ. כפר-כנא",
        "latitude": 32.7481971,
        "longitude": 35.3438401,
        "radius": 3,
        "fillkey": "gt50",
        "sum1": 83801009,
        "sum2": 4513994,
        "sum3": 172311834,
        "sum4": 524436
    },
    {
        "name": "מ. מ. להבים",
        "latitude": 31.373831,
        "longitude": 34.816951,
        "radius": 3,
        "fillkey": "gt50",
        "sum1": 17115344,
        "sum2": 2745539,
        "sum3": 2871120,
        "sum4": 7433
    },
    {
        "name": "מ. מ. לקיה",
        "latitude": 31.324881,
        "longitude": 34.866211,
        "radius": 3,
        "fillkey": "gt50",
        "sum1": 49680924,
        "sum2": 10613410,
        "sum3": 82500364,
        "sum4": 654966
    },
    {
        "name": "מ. מ. מבשרת ציון",
        "latitude": 31.804051,
        "longitude": 35.157891,
        "radius": 3,
        "fillkey": "gt50",
        "sum1": 58319316,
        "sum2": 1817350,
        "sum3": 85650156,
        "sum4": 859714
    },
    {
        "name": "מ. מ. מגאר",
        "latitude": 32.890701,
        "longitude": 35.40461,
        "radius": 3,
        "fillkey": "gt50",
        "sum1": 176258844,
        "sum2": 29159405,
        "sum3": 151535122,
        "sum4": 2659334
    },
    {
        "name": "מ. מ. מגד אל-כרום",
        "latitude": 32.920131,
        "longitude": 35.25661,
        "radius": 3,
        "fillkey": "gt50",
        "sum1": 68554459,
        "sum2": 4707050,
        "sum3": 79492421,
        "sum4": 284330
    },
    {
        "name": "מ. מ. מגדל",
        "latitude": 32.839491,
        "longitude": 35.499841,
        "radius": 3,
        "fillkey": "gt50",
        "sum1": 5634900,
        "sum2": 2267121,
        "sum3": 27729517,
        "sum4": 228115
    },
    {
        "name": "מ. מ. מגדל תפן",
        "latitude": 32.9742991,
        "longitude": 35.2761141,
        "radius": 3,
        "fillkey": "gt50",
        "sum1": 5175399,
        "sum2": 388971,
        "sum3": 24658,
        "sum4": 0
    },
    {
        "name": "מ. מ. מזרעה",
        "latitude": 32.983651,
        "longitude": 35.098931,
        "radius": 3,
        "fillkey": "gt50",
        "sum1": 12727475,
        "sum2": 5392675,
        "sum3": 46413021,
        "sum4": 58764
    },
    {
        "name": "מ. מ. מטולה",
        "latitude": 33.277231,
        "longitude": 35.578231,
        "radius": 3,
        "fillkey": "gt50",
        "sum1": 7722544,
        "sum2": 9678079,
        "sum3": 16870388,
        "sum4": 9738
    },
    {
        "name": "מ. מ. מיתר",
        "latitude": 31.327011,
        "longitude": 34.943211,
        "radius": 3,
        "fillkey": "gt50",
        "sum1": 19178540,
        "sum2": 5002117,
        "sum3": 7881175,
        "sum4": 213560
    },
    {
        "name": "מ. מ. מכבים-רעות",
        "latitude": 31.890261,
        "longitude": 35.010391,
        "radius": 3,
        "fillkey": "gt50",
        "sum1": 0,
        "sum2": 67401,
        "sum3": 0,
        "sum4": 0
    },
    {
        "name": "מ. מ. מנחמיה",
        "latitude": 32.664331,
        "longitude": 35.55533800000001,
        "radius": 3,
        "fillkey": "gt50",
        "sum1": 0,
        "sum2": 0,
        "sum3": 5861926,
        "sum4": 0
    },
    {
        "name": "מ. מ. מסעדה",
        "latitude": 33.23101,
        "longitude": 35.756281,
        "radius": 3,
        "fillkey": "gt50",
        "sum1": 49916436,
        "sum2": 4425822,
        "sum3": 48416896,
        "sum4": 0
    },
    {
        "name": "מ. מ. מעיליא",
        "latitude": 33.027191,
        "longitude": 35.256301,
        "radius": 3,
        "fillkey": "gt50",
        "sum1": 2290285,
        "sum2": 16582137,
        "sum3": 43924087,
        "sum4": 0
    },
    {
        "name": "מ. מ. מעלה אפרים",
        "latitude": 32.071301,
        "longitude": 35.4031,
        "radius": 3,
        "fillkey": "gt50",
        "sum1": 8646047,
        "sum2": 3033839,
        "sum3": 55070187,
        "sum4": 246710
    },
    {
        "name": "מ. מ. מעלה עירון",
        "latitude": 32.554121,
        "longitude": 35.182491,
        "radius": 3,
        "fillkey": "gt50",
        "sum1": 100210307,
        "sum2": 22073552,
        "sum3": 103844246,
        "sum4": 0
    },
    {
        "name": "מ. מ. מצפה רמון",
        "latitude": 30.610201,
        "longitude": 34.801891,
        "radius": 3,
        "fillkey": "gt50",
        "sum1": 46513858,
        "sum2": 7489080,
        "sum3": 50224008,
        "sum4": 572987
    },
    {
        "name": "מ. מ. נחף",
        "latitude": 32.934671,
        "longitude": 35.31651,
        "radius": 3,
        "fillkey": "gt50",
        "sum1": 102267405,
        "sum2": 5080564,
        "sum3": 110597425,
        "sum4": 79600
    },
    {
        "name": "מ. מ. סאגור",
        "latitude": 32.943101,
        "longitude": 35.343611,
        "radius": 3,
        "fillkey": "gt50",
        "sum1": 20668245,
        "sum2": 13738130,
        "sum3": 67485909,
        "sum4": 190709
    },
    {
        "name": "מ. מ. סביון",
        "latitude": 32.045581,
        "longitude": 34.87657799999991,
        "radius": 3,
        "fillkey": "gt50",
        "sum1": 2848133,
        "sum2": 436869,
        "sum3": 184844,
        "sum4": 0
    },
    {
        "name": "מ. מ. עומר",
        "latitude": 31.264301,
        "longitude": 34.849861,
        "radius": 3,
        "fillkey": "gt50",
        "sum1": 70309544,
        "sum2": 643029,
        "sum3": 2213653,
        "sum4": 87107
    },
    {
        "name": "מ. מ. עוספייא",
        "latitude": 32.720731,
        "longitude": 35.059081,
        "radius": 3,
        "fillkey": "gt50",
        "sum1": 40173934,
        "sum2": 3116538,
        "sum3": 80341985,
        "sum4": 662249
    },
    {
        "name": "מ. מ. עילבון",
        "latitude": 32.837941,
        "longitude": 35.399991,
        "radius": 3,
        "fillkey": "gt50",
        "sum1": 9559615,
        "sum2": 7629653,
        "sum3": 51906982,
        "sum4": 220140
    },
    {
        "name": "מ. מ. עילוט",
        "latitude": 32.717241,
        "longitude": 35.261481,
        "radius": 3,
        "fillkey": "gt50",
        "sum1": 49576239,
        "sum2": 12843557,
        "sum3": 78153249,
        "sum4": 484430
    },
    {
        "name": "מ. מ. עימנואל",
        "latitude": 32.160681,
        "longitude": 35.136031,
        "radius": 3,
        "fillkey": "gt50",
        "sum1": 10322117,
        "sum2": 2149051,
        "sum3": 83461350,
        "sum4": 241486
    },
    {
        "name": "מ. מ. עין מאהל",
        "latitude": 32.724291,
        "longitude": 35.353361,
        "radius": 3,
        "fillkey": "gt50",
        "sum1": 91659555,
        "sum2": 5316529,
        "sum3": 97231897,
        "sum4": 0
    },
    {
        "name": "מ. מ. ערערה-בנגב",
        "latitude": 31.160921,
        "longitude": 35.019751,
        "radius": 3,
        "fillkey": "gt50",
        "sum1": 90445553,
        "sum2": 19349818,
        "sum3": 117146038,
        "sum4": 823277
    },
    {
        "name": "מ. מ. פוריידיס",
        "latitude": 32.597351,
        "longitude": 34.951891,
        "radius": 3,
        "fillkey": "gt50",
        "sum1": 91415738,
        "sum2": 10279973,
        "sum3": 70084824,
        "sum4": 0
    },
    {
        "name": "מ. מ. פסוטה",
        "latitude": 33.04781,
        "longitude": 35.308821,
        "radius": 3,
        "fillkey": "gt50",
        "sum1": 6191823,
        "sum2": 8065395,
        "sum3": 53120771,
        "sum4": 0
    },
    {
        "name": "מ. מ. פקיעין",
        "latitude": 32.976201,
        "longitude": 35.335791,
        "radius": 3,
        "fillkey": "gt50",
        "sum1": 50324686,
        "sum2": 32241746,
        "sum3": 74056893,
        "sum4": 659935
    },
    {
        "name": "מ. מ. פרדס-חנה-כרכור",
        "latitude": 32.4728021,
        "longitude": 34.9742001,
        "radius": 3,
        "fillkey": "gt50",
        "sum1": 70205567,
        "sum2": 12871993,
        "sum3": 120689570,
        "sum4": 0
    },
    {
        "name": "מ. מ. פרדסיה",
        "latitude": 32.305011,
        "longitude": 34.911731,
        "radius": 3,
        "fillkey": "gt50",
        "sum1": 10822665,
        "sum2": 2349010,
        "sum3": 33317439,
        "sum4": 279140
    },
    {
        "name": "מ. מ. צורן",
        "latitude": 32.277641,
        "longitude": 34.919291,
        "radius": 3,
        "fillkey": "gt50",
        "sum1": 0,
        "sum2": 7001,
        "sum3": 0,
        "sum4": 0
    },
    {
        "name": "מ. מ. קדומים",
        "latitude": 32.21231,
        "longitude": 35.157381,
        "radius": 3,
        "fillkey": "gt50",
        "sum1": 30123676,
        "sum2": 6686787,
        "sum3": 70101309,
        "sum4": 557061
    },
    {
        "name": "מ. מ. קדימה-צורן",
        "latitude": 32.277641,
        "longitude": 34.919291,
        "radius": 3,
        "fillkey": "gt50",
        "sum1": 9613475,
        "sum2": 3775535,
        "sum3": 35858399,
        "sum4": 907937
    },
    {
        "name": "מ. מ. קצרין",
        "latitude": 32.990991,
        "longitude": 35.689861,
        "radius": 3,
        "fillkey": "gt50",
        "sum1": 24227758,
        "sum2": 6541140,
        "sum3": 114415906,
        "sum4": 272733
    },
    {
        "name": "מ. מ. קרית ארבע",
        "latitude": 31.529321,
        "longitude": 35.115621,
        "radius": 3,
        "fillkey": "gt50",
        "sum1": 55699713,
        "sum2": 3507658,
        "sum3": 123350386,
        "sum4": 521038
    },
    {
        "name": "מ. מ. קרית טבעון",
        "latitude": 32.716221,
        "longitude": 35.127481,
        "radius": 3,
        "fillkey": "gt50",
        "sum1": 23507336,
        "sum2": 6088428,
        "sum3": 3944646,
        "sum4": 939873
    },
    {
        "name": "מ. מ. קרית יערים",
        "latitude": 31.802771,
        "longitude": 35.099941,
        "radius": 3,
        "fillkey": "gt50",
        "sum1": 10614821,
        "sum2": 2214325,
        "sum3": 59233277,
        "sum4": 0
    },
    {
        "name": "מ. מ. קרית עקרון",
        "latitude": 31.862541,
        "longitude": 34.8219571,
        "radius": 3,
        "fillkey": "gt50",
        "sum1": 23907217,
        "sum2": 14267106,
        "sum3": 45313151,
        "sum4": 932629
    },
    {
        "name": "מ. מ. קרני שומרון",
        "latitude": 32.171551,
        "longitude": 35.097461,
        "radius": 3,
        "fillkey": "gt50",
        "sum1": 57175382,
        "sum2": 8681963,
        "sum3": 84666335,
        "sum4": 309362
    },
    {
        "name": "מ. מ. ראמה",
        "latitude": 32.937111,
        "longitude": 35.366981,
        "radius": 3,
        "fillkey": "gt50",
        "sum1": 50072702,
        "sum2": 11568054,
        "sum3": 89115285,
        "sum4": 0
    },
    {
        "name": "מ. מ. ראש פינה",
        "latitude": 32.970421,
        "longitude": 35.542651,
        "radius": 3,
        "fillkey": "gt50",
        "sum1": 5114352,
        "sum2": 5294959,
        "sum3": 1197551,
        "sum4": 253203
    },
    {
        "name": "מ. מ. ריינה",
        "latitude": 32.719921,
        "longitude": 35.317651,
        "radius": 3,
        "fillkey": "gt50",
        "sum1": 89405045,
        "sum2": 8085010,
        "sum3": 90892299,
        "sum4": 189832
    },
    {
        "name": "מ. מ. רכסים",
        "latitude": 32.749261,
        "longitude": 35.099581,
        "radius": 3,
        "fillkey": "gt50",
        "sum1": 43804144,
        "sum2": 7107359,
        "sum3": 110541679,
        "sum4": 335558
    },
    {
        "name": "מ. מ. רמת חובב",
        "latitude": 32.0163711,
        "longitude": 34.7970641,
        "radius": 3,
        "fillkey": "gt50",
        "sum1": 0,
        "sum2": 0,
        "sum3": 0,
        "sum4": 0
    },
    {
        "name": "מ. מ. רמת ישי",
        "latitude": 32.704021,
        "longitude": 35.166001,
        "radius": 3,
        "fillkey": "gt50",
        "sum1": 10569870,
        "sum2": 4954481,
        "sum3": 10845473,
        "sum4": 243743
    },
    {
        "name": "מ. מ. שבלי",
        "latitude": 32.694081,
        "longitude": 35.396231,
        "radius": 3,
        "fillkey": "gt50",
        "sum1": 28859253,
        "sum2": 23626115,
        "sum3": 60654302,
        "sum4": 529736
    },
    {
        "name": "מ. מ. שגב-שלום",
        "latitude": 31.198361,
        "longitude": 34.839661,
        "radius": 3,
        "fillkey": "gt50",
        "sum1": 67890970,
        "sum2": 12792889,
        "sum3": 63035216,
        "sum4": 495959
    },
    {
        "name": "מ. מ. שהם",
        "latitude": 31.9957581,
        "longitude": 34.9488401,
        "radius": 3,
        "fillkey": "gt50",
        "sum1": 138172090,
        "sum2": 7510487,
        "sum3": 16955338,
        "sum4": 1033857
    },
    {
        "name": "מ. מ. שלומי",
        "latitude": 33.072601,
        "longitude": 35.145941,
        "radius": 3,
        "fillkey": "gt50",
        "sum1": 39902253,
        "sum2": 15062360,
        "sum3": 46428440,
        "sum4": 329728
    },
    {
        "name": "מ. מ. שעב",
        "latitude": 32.88961,
        "longitude": 35.238761,
        "radius": 3,
        "fillkey": "gt50",
        "sum1": 60168884,
        "sum2": 5946048,
        "sum3": 73862130,
        "sum4": 174752
    },
    {
        "name": "מ. מ. תל מונד",
        "latitude": 32.256601,
        "longitude": 34.91841,
        "radius": 3,
        "fillkey": "gt50",
        "sum1": 104194859,
        "sum2": 2414168,
        "sum3": 28520067,
        "sum4": 0
    },
    {
        "name": "מ. מ. תל שבע",
        "latitude": 31.247561,
        "longitude": 34.861191,
        "radius": 3,
        "fillkey": "gt50",
        "sum1": 74804696,
        "sum2": 6384017,
        "sum3": 99253166,
        "sum4": 783994
    },
    {
        "name": "עיריית אלעד",
        "latitude": 33.007501,
        "longitude": 35.218301,
        "radius": 3,
        "fillkey": "gt50",
        "sum1": 133284673,
        "sum2": 7034315,
        "sum3": 205717500,
        "sum4": 0
    },
    {
        "name": "עיריית גבעת שמואל",
        "latitude": 32.07510200000001,
        "longitude": 34.846391,
        "radius": 3,
        "fillkey": "gt50",
        "sum1": 42074274,
        "sum2": 10922231,
        "sum3": 34484519,
        "sum4": 149980
    },
    {
        "name": "עיריית כפר קאסם",
        "latitude": 32.1151671,
        "longitude": 34.9759811,
        "radius": 3,
        "fillkey": "gt50",
        "sum1": 120069598,
        "sum2": 8873455,
        "sum3": 128553666,
        "sum4": 834102
    },
    {
        "name": "עיריית מודיעין עילית",
        "latitude": 31.924461,
        "longitude": 35.0440271,
        "radius": 3,
        "fillkey": "gt50",
        "sum1": 241860459,
        "sum2": 41754935,
        "sum3": 269618406,
        "sum4": 62146
    },
    {
        "name": "עירית אום-אל-פחם",
        "latitude": 32.517121,
        "longitude": 35.148521,
        "radius": 3,
        "fillkey": "gt50",
        "sum1": 362727058,
        "sum2": 22862388,
        "sum3": 181661134,
        "sum4": 1287476
    },
    {
        "name": "עירית אופקים",
        "latitude": 31.311331,
        "longitude": 34.622821,
        "radius": 3,
        "fillkey": "gt50",
        "sum1": 57947465,
        "sum2": 12526590,
        "sum3": 282670354,
        "sum4": 1786937
    },
    {
        "name": "עירית אור יהודה",
        "latitude": 32.029741,
        "longitude": 34.85617300000001,
        "radius": 3,
        "fillkey": "gt50",
        "sum1": 85067346,
        "sum2": 9940677,
        "sum3": 83989752,
        "sum4": 2301909
    },
    {
        "name": "עירית אור עקיבא",
        "latitude": 32.509961,
        "longitude": 34.920391,
        "radius": 3,
        "fillkey": "gt50",
        "sum1": 70605695,
        "sum2": 16023620,
        "sum3": 140405321,
        "sum4": 1712971
    },
    {
        "name": "עירית אילת",
        "latitude": 29.557661,
        "longitude": 34.951921,
        "radius": 3,
        "fillkey": "gt50",
        "sum1": 345763860,
        "sum2": 25104551,
        "sum3": 50775645,
        "sum4": 5005471
    },
    {
        "name": "עירית אל-טירה",
        "latitude": 32.227361,
        "longitude": 34.941901,
        "radius": 3,
        "fillkey": "gt50",
        "sum1": 52432246,
        "sum2": 28532531,
        "sum3": 119221019,
        "sum4": 1370573
    },
    {
        "name": "עירית אריאל",
        "latitude": 32.104631,
        "longitude": 35.17451399999991,
        "radius": 3,
        "fillkey": "gt50",
        "sum1": 42391003,
        "sum2": 19013046,
        "sum3": 142570958,
        "sum4": 1269466
    },
    {
        "name": "עירית אשדוד",
        "latitude": 31.804381,
        "longitude": 34.655311,
        "radius": 3,
        "fillkey": "gt50",
        "sum1": 904766479,
        "sum2": 66796686,
        "sum3": 27797978,
        "sum4": 6635468
    },
    {
        "name": "עירית אשקלון",
        "latitude": 31.6687881,
        "longitude": 34.5742521,
        "radius": 3,
        "fillkey": "gt50",
        "sum1": 289923662,
        "sum2": 52804243,
        "sum3": 34211635,
        "sum4": 4204038
    },
    {
        "name": "עירית באר שבע",
        "latitude": 31.252971,
        "longitude": 34.791461,
        "radius": 3,
        "fillkey": "gt50",
        "sum1": 724724016,
        "sum2": 135235718,
        "sum3": 65320304,
        "sum4": 3729797
    },
    {
        "name": "עירית בית שאן",
        "latitude": 32.497101,
        "longitude": 35.497331,
        "radius": 3,
        "fillkey": "gt50",
        "sum1": 55811561,
        "sum2": 51083556,
        "sum3": 320248383,
        "sum4": 436961
    },
    {
        "name": "עירית בית-שמש",
        "latitude": 31.747041,
        "longitude": 34.988091,
        "radius": 3,
        "fillkey": "gt50",
        "sum1": 202864321,
        "sum2": 27903415,
        "sum3": 361321280,
        "sum4": 3798735
    },
    {
        "name": "עירית ביתר עילית",
        "latitude": 31.7010021,
        "longitude": 35.1119251,
        "radius": 3,
        "fillkey": "gt50",
        "sum1": 181239158,
        "sum2": 13897257,
        "sum3": 274055470,
        "sum4": 763241
    },
    {
        "name": "עירית בני ברק",
        "latitude": 32.084931,
        "longitude": 34.835221,
        "radius": 3,
        "fillkey": "gt50",
        "sum1": 953660892,
        "sum2": 40039643,
        "sum3": 535788418,
        "sum4": 726120
    },
    {
        "name": "עירית בת-ים",
        "latitude": 32.013181,
        "longitude": 34.748011,
        "radius": 3,
        "fillkey": "gt50",
        "sum1": 335407496,
        "sum2": 18611041,
        "sum3": 266064327,
        "sum4": 4653325
    },
    {
        "name": "עירית גבעתיים",
        "latitude": 32.072171,
        "longitude": 34.808871,
        "radius": 3,
        "fillkey": "gt50",
        "sum1": 139914231,
        "sum2": 11832648,
        "sum3": 10125228,
        "sum4": 4730703
    },
    {
        "name": "עירית דימונה",
        "latitude": 31.069411,
        "longitude": 35.033361,
        "radius": 3,
        "fillkey": "gt50",
        "sum1": 80246551,
        "sum2": 18013530,
        "sum3": 297894855,
        "sum4": 4589669
    },
    {
        "name": "עירית הוד השרון",
        "latitude": 32.149961,
        "longitude": 34.8838781,
        "radius": 3,
        "fillkey": "gt50",
        "sum1": 184580207,
        "sum2": 18518631,
        "sum3": 3275879,
        "sum4": 382618
    },
    {
        "name": "עירית הרצליה",
        "latitude": 32.162411,
        "longitude": 34.844671,
        "radius": 3,
        "fillkey": "gt50",
        "sum1": 388513258,
        "sum2": 8819391,
        "sum3": 13168988,
        "sum4": 0
    },
    {
        "name": "עירית חדרה",
        "latitude": 32.4340451,
        "longitude": 34.9196511,
        "radius": 3,
        "fillkey": "gt50",
        "sum1": 109000700,
        "sum2": 61220406,
        "sum3": 21507718,
        "sum4": 2900331
    },
    {
        "name": "עירית חולון",
        "latitude": 32.015831,
        "longitude": 34.787381,
        "radius": 3,
        "fillkey": "gt50",
        "sum1": 634305376,
        "sum2": 42682299,
        "sum3": 36446515,
        "sum4": 4202800
    },
    {
        "name": "עירית חיפה",
        "latitude": 32.7940461,
        "longitude": 34.989571,
        "radius": 3,
        "fillkey": "gt50",
        "sum1": 586099426,
        "sum2": 4236710884,
        "sum3": 27526126,
        "sum4": 5049112
    },
    {
        "name": "עירית טבריה",
        "latitude": 32.795851,
        "longitude": 35.530971,
        "radius": 3,
        "fillkey": "gt50",
        "sum1": 92644306,
        "sum2": 139466482,
        "sum3": 141212035,
        "sum4": 4225503
    },
    {
        "name": "עירית טייבה",
        "latitude": 32.266891,
        "longitude": 35.009671,
        "radius": 3,
        "fillkey": "gt50",
        "sum1": 37747499,
        "sum2": 12877953,
        "sum3": 210176027,
        "sum4": 875746
    },
    {
        "name": "עירית טירת כרמל",
        "latitude": 32.762121,
        "longitude": 34.97291,
        "radius": 3,
        "fillkey": "gt50",
        "sum1": 107104546,
        "sum2": 14351487,
        "sum3": 34097220,
        "sum4": 1257578
    },
    {
        "name": "עירית טמרה",
        "latitude": 32.852241,
        "longitude": 35.201311,
        "radius": 3,
        "fillkey": "gt50",
        "sum1": 282397979,
        "sum2": 17595711,
        "sum3": 171058636,
        "sum4": 2246670
    },
    {
        "name": "עירית יבנה",
        "latitude": 31.877951,
        "longitude": 34.739441,
        "radius": 3,
        "fillkey": "gt50",
        "sum1": 191963746,
        "sum2": 19526422,
        "sum3": 8790559,
        "sum4": 733580
    },
    {
        "name": "עירית יהוד-מונוסון",
        "latitude": 32.029331,
        "longitude": 34.879571,
        "radius": 3,
        "fillkey": "gt50",
        "sum1": 121904,
        "sum2": 123629,
        "sum3": 2069827,
        "sum4": 620117
    },
    {
        "name": "עירית יקנעם עילית",
        "latitude": 32.660221,
        "longitude": 35.104601,
        "radius": 3,
        "fillkey": "gt50",
        "sum1": 78871560,
        "sum2": 7111269,
        "sum3": 52558082,
        "sum4": 1175405
    },
    {
        "name": "עירית ירושלים",
        "latitude": 31.768311,
        "longitude": 35.21371,
        "radius": 3,
        "fillkey": "gt50",
        "sum1": 1887483925,
        "sum2": 2577830435,
        "sum3": 1632200187,
        "sum4": 40470385
    },
    {
        "name": "עירית כפר סבא",
        "latitude": 32.178191,
        "longitude": 34.90761,
        "radius": 3,
        "fillkey": "gt50",
        "sum1": 397429167,
        "sum2": 12468594,
        "sum3": 5553193,
        "sum4": 4612283
    },
    {
        "name": "עירית כרמיאל",
        "latitude": 32.914671,
        "longitude": 35.292411,
        "radius": 3,
        "fillkey": "gt50",
        "sum1": 91158527,
        "sum2": 7055891,
        "sum3": 60362538,
        "sum4": 3491787
    },
    {
        "name": "עירית לוד",
        "latitude": 31.951011,
        "longitude": 34.888071,
        "radius": 3,
        "fillkey": "gt50",
        "sum1": 285289593,
        "sum2": 21052862,
        "sum3": 348726731,
        "sum4": 9258411
    },
    {
        "name": "עירית מגדל העמק",
        "latitude": 32.673501,
        "longitude": 35.243441,
        "radius": 3,
        "fillkey": "gt50",
        "sum1": 76651141,
        "sum2": 15055911,
        "sum3": 148209119,
        "sum4": 2452523
    },
    {
        "name": "עירית מודיעין",
        "latitude": 31.890261,
        "longitude": 35.010391,
        "radius": 3,
        "fillkey": "gt50",
        "sum1": 0,
        "sum2": 1565690,
        "sum3": 5273977,
        "sum4": 0
    },
    {
        "name": "עירית מעלה אדומים",
        "latitude": 31.777361,
        "longitude": 35.297951,
        "radius": 3,
        "fillkey": "gt50",
        "sum1": 121562851,
        "sum2": 4670185,
        "sum3": 174945870,
        "sum4": 4747043
    },
    {
        "name": "עירית מעלות תרשיחא",
        "latitude": 33.015021,
        "longitude": 35.276011,
        "radius": 3,
        "fillkey": "gt50",
        "sum1": 71245786,
        "sum2": 12428399,
        "sum3": 213096548,
        "sum4": 1506434
    },
    {
        "name": "עירית נהריה",
        "latitude": 33.0085361,
        "longitude": 35.0980511,
        "radius": 3,
        "fillkey": "gt50",
        "sum1": 131916578,
        "sum2": 74937056,
        "sum3": 204692857,
        "sum4": 3784187
    },
    {
        "name": "עירית נס ציונה",
        "latitude": 31.932111,
        "longitude": 34.801321,
        "radius": 3,
        "fillkey": "gt50",
        "sum1": 217759513,
        "sum2": 26673748,
        "sum3": 4979768,
        "sum4": 2836832
    },
    {
        "name": "עירית נצרת",
        "latitude": 32.699631,
        "longitude": 35.303541,
        "radius": 3,
        "fillkey": "gt50",
        "sum1": 297226727,
        "sum2": 51829524,
        "sum3": 259040587,
        "sum4": 3728042
    },
    {
        "name": "עירית נצרת עילית",
        "latitude": 32.711531,
        "longitude": 35.324811,
        "radius": 3,
        "fillkey": "gt50",
        "sum1": 63770865,
        "sum2": 31990110,
        "sum3": 107734610,
        "sum4": 4974076
    },
    {
        "name": "עירית נשר",
        "latitude": 32.7641,
        "longitude": 35.049191,
        "radius": 3,
        "fillkey": "gt50",
        "sum1": 91681016,
        "sum2": 5673073,
        "sum3": 2593050,
        "sum4": 578772
    },
    {
        "name": "עירית נתיבות",
        "latitude": 31.423191,
        "longitude": 34.595251,
        "radius": 3,
        "fillkey": "gt50",
        "sum1": 184004620,
        "sum2": 25875231,
        "sum3": 243749307,
        "sum4": 2278767
    },
    {
        "name": "עירית נתניה",
        "latitude": 32.321451,
        "longitude": 34.853191,
        "radius": 3,
        "fillkey": "gt50",
        "sum1": 856319430,
        "sum2": 84561566,
        "sum3": 17848831,
        "sum4": 4793097
    },
    {
        "name": "עירית סחנין",
        "latitude": 32.864161,
        "longitude": 35.294541,
        "radius": 3,
        "fillkey": "gt50",
        "sum1": 238094700,
        "sum2": 43954722,
        "sum3": 204924873,
        "sum4": 1195508
    },
    {
        "name": "עירית עכו",
        "latitude": 32.933051,
        "longitude": 35.082671,
        "radius": 3,
        "fillkey": "gt50",
        "sum1": 110020592,
        "sum2": 235005042,
        "sum3": 281824372,
        "sum4": 4193821
    },
    {
        "name": "עירית עפולה",
        "latitude": 32.610491,
        "longitude": 35.287921,
        "radius": 3,
        "fillkey": "gt50",
        "sum1": 112785681,
        "sum2": 46750796,
        "sum3": 45174771,
        "sum4": 2823770
    },
    {
        "name": "עירית ערד",
        "latitude": 31.261441,
        "longitude": 35.214861,
        "radius": 3,
        "fillkey": "gt50",
        "sum1": 35398943,
        "sum2": 12409446,
        "sum3": 213001985,
        "sum4": 592843
    },
    {
        "name": "עירית פתח תקוה",
        "latitude": 32.084041,
        "longitude": 34.887761,
        "radius": 3,
        "fillkey": "gt50",
        "sum1": 608990375,
        "sum2": 20300942,
        "sum3": 20341714,
        "sum4": 367292
    },
    {
        "name": "עירית צפת",
        "latitude": 32.964641,
        "longitude": 35.495991,
        "radius": 3,
        "fillkey": "gt50",
        "sum1": 92872891,
        "sum2": 36629794,
        "sum3": 318552095,
        "sum4": 2232260
    },
    {
        "name": "עירית קלנסווה",
        "latitude": 32.285791,
        "longitude": 34.981481,
        "radius": 3,
        "fillkey": "gt50",
        "sum1": 65071535,
        "sum2": 10020372,
        "sum3": 103229765,
        "sum4": 181858
    },
    {
        "name": "עירית קרית אונו",
        "latitude": 32.054861,
        "longitude": 34.85885800000001,
        "radius": 3,
        "fillkey": "gt50",
        "sum1": 197449850,
        "sum2": 9125657,
        "sum3": 9607756,
        "sum4": 1249867
    },
    {
        "name": "עירית קרית אתא",
        "latitude": 32.809141,
        "longitude": 35.119771,
        "radius": 3,
        "fillkey": "gt50",
        "sum1": 241496368,
        "sum2": 213483193,
        "sum3": 131734956,
        "sum4": 925199
    },
    {
        "name": "עירית קרית ביאליק",
        "latitude": 32.832151,
        "longitude": 35.088401,
        "radius": 3,
        "fillkey": "gt50",
        "sum1": 36108213,
        "sum2": 11791567,
        "sum3": 11983369,
        "sum4": 2555354
    },
    {
        "name": "עירית קרית גת",
        "latitude": 31.611141,
        "longitude": 34.768451,
        "radius": 3,
        "fillkey": "gt50",
        "sum1": 327936434,
        "sum2": 18617307,
        "sum3": 206499335,
        "sum4": 3769689
    },
    {
        "name": "עירית קרית ים",
        "latitude": 32.849271,
        "longitude": 35.068921,
        "radius": 3,
        "fillkey": "gt50",
        "sum1": 157186120,
        "sum2": 10561700,
        "sum3": 247362220,
        "sum4": 2206386
    },
    {
        "name": "עירית קרית מוצקין",
        "latitude": 32.838201,
        "longitude": 35.079521,
        "radius": 3,
        "fillkey": "gt50",
        "sum1": 40006428,
        "sum2": 10215817,
        "sum3": 120687132,
        "sum4": 702222
    },
    {
        "name": "עירית קרית מלאכי",
        "latitude": 31.730201,
        "longitude": 34.746991,
        "radius": 3,
        "fillkey": "gt50",
        "sum1": 71960935,
        "sum2": 4967373,
        "sum3": 188282391,
        "sum4": 519587
    },
    {
        "name": "עירית קרית שמונה",
        "latitude": 33.207931,
        "longitude": 35.570241,
        "radius": 3,
        "fillkey": "gt50",
        "sum1": 117138789,
        "sum2": 20988759,
        "sum3": 202062072,
        "sum4": 673681
    },
    {
        "name": "עירית ראש העין",
        "latitude": 32.095831,
        "longitude": 34.952171,
        "radius": 3,
        "fillkey": "gt50",
        "sum1": 223671718,
        "sum2": 17272070,
        "sum3": 5246140,
        "sum4": 2753424
    },
    {
        "name": "עירית רהט",
        "latitude": 31.394541,
        "longitude": 34.753931,
        "radius": 3,
        "fillkey": "gt50",
        "sum1": 308531686,
        "sum2": 27716608,
        "sum3": 204718082,
        "sum4": 4129971
    },
    {
        "name": "עירית רחובות",
        "latitude": 31.892771,
        "longitude": 34.811271,
        "radius": 3,
        "fillkey": "gt50",
        "sum1": 432852845,
        "sum2": 47565927,
        "sum3": 15439076,
        "sum4": 1234642
    },
    {
        "name": "עירית רמלה",
        "latitude": 31.931561,
        "longitude": 34.872931,
        "radius": 3,
        "fillkey": "gt50",
        "sum1": 188604562,
        "sum2": 18864165,
        "sum3": 322568000,
        "sum4": 4472512
    },
    {
        "name": "עירית רמת גן",
        "latitude": 32.068421,
        "longitude": 34.824781,
        "radius": 3,
        "fillkey": "gt50",
        "sum1": 550936715,
        "sum2": 30678123,
        "sum3": 35329559,
        "sum4": 9918864
    },
    {
        "name": "עירית רמת השרון",
        "latitude": 32.137791,
        "longitude": 34.840271,
        "radius": 3,
        "fillkey": "gt50",
        "sum1": 185410354,
        "sum2": 5088473,
        "sum3": 7913171,
        "sum4": 646434
    },
    {
        "name": "עירית רעננה",
        "latitude": 32.184781,
        "longitude": 34.871321,
        "radius": 3,
        "fillkey": "gt50",
        "sum1": 329404593,
        "sum2": 5257757,
        "sum3": 10990065,
        "sum4": 0
    },
    {
        "name": "עירית שדרות",
        "latitude": 31.52269399999991,
        "longitude": 34.595581,
        "radius": 3,
        "fillkey": "gt50",
        "sum1": 189330867,
        "sum2": 14847107,
        "sum3": 365958426,
        "sum4": 2296483
    },
    {
        "name": "עירית שפרעם",
        "latitude": 32.80576500000001,
        "longitude": 35.169971,
        "radius": 3,
        "fillkey": "gt50",
        "sum1": 171774050,
        "sum2": 46782391,
        "sum3": 165100507,
        "sum4": 3457990
    },
    {
        "name": "עירית תל-אביב-יפו",
        "latitude": 32.0852991,
        "longitude": 34.78176759999991,
        "radius": 3,
        "fillkey": "gt50",
        "sum1": 828361279,
        "sum2": 57346851,
        "sum3": 78009827,
        "sum4": 31798142
    }
]